Station or stop,Name,Coordinate Latitude,Coordinate Longitude,Number of trains,Minutes of delay,geometry,route_ids
80197079,KINDSBACH,49.42045,7.613668,30.880503,54.720126,POINT (7.61367 49.42045),3280.0
80160168,NIEDERTREBRA,51.0655,11.5807,28.091228,0.691228,POINT (11.58070 51.06550),6340.0
80105122,HAMM FELDMARK,51.697611,7.78787,23.058594,33.949219,POINT (7.78787 51.69761),2931.0
80190793,LUDWIGSHAFEN (RHEIN) BASF,49.510682,8.428922,27.984375,0.475,POINT (8.42892 49.51068),4030.0
80231464,BURGKEMNITZ,51.6894,12.40799,12.372549,1.176471,POINT (12.40799 51.68940),6132.0
80020644,HERBERTSHOFEN,48.52957,10.8493,42.0,0.0,POINT (10.84930 48.52957),5300.0
80042267,HOSENA,51.454332,14.0176,27.621514,60.322709,POINT (14.01760 51.45433),6207.0
80210831,DOERPEN,52.97195,7.35477,31.196226,85.833962,POINT (7.35477 52.97195),2931.0
80141234,ZWINGENBERG (BADEN),49.415932,9.043209,11.12766,8.191489,POINT (9.04321 49.41593),4111.0
80113308,LUETZELSACHSEN,49.52826,8.65035,56.507886,0.0,POINT (8.65035 49.52826),3601.0
80226910,UFFENHEIM,49.551275,10.243393,63.328125,59.734375,POINT (10.24339 49.55127),5321.0
80260877,IMMENREUTH,49.911916,11.869692,14.441718,0.0,POINT (11.86969 49.91192),5903.0
80174466,NUERNBERG-REICHELSDORF,49.382006,11.038586,30.764901,18.178808,POINT (11.03859 49.38201),5320.0
80221887,FUERTH(BAY)HBF,49.47084,10.988667,70.627726,189.191589,POINT (10.98867 49.47084),5972.0
80195081,KESTERT,50.187062,7.649026,65.440273,5.382253,POINT (7.64903 50.18706),3507.0
80103721,BAD SASSENDORF,51.58787,8.16281,21.35865,1.227848,POINT (8.16281 51.58787),1760.0
80148486,ANGERSDORF,51.460292,11.90357,26.574899,63.313765,POINT (11.90357 51.46029),6389.0
80241406,SAARBRUECKEN HBF,49.242099,6.99273,16.887781,37.762261,POINT (6.99273 49.24210),3511.0
80226902,HERRNBERCHTHEIM,49.59135,10.19668,63.453125,51.39375,POINT (10.19668 49.59135),5321.0
80011700,BAD BEVENSEN,53.07974,10.57551,72.68125,52.384375,POINT (10.57551 53.07974),1720.0
80066985,STEINPLEIS,50.7109,12.394034,16.350711,1.445498,POINT (12.39403 50.71090),6258.0
80112458,LEEHEIM-WOLFSKEHLEN,49.85563,8.493127,61.978125,3.09375,POINT (8.49313 49.85563),4010.0
80113092,HEMSBACH,49.590536,8.648901,56.750789,27.416404,POINT (8.64890 49.59054),3601.0
80196436,NIEDERSCHELDEN,50.83972,7.96588,14.177914,3.730061,POINT (7.96588 50.83972),2880.0
80319376,MEIMERSDORF OST,54.294393,10.1357,12.666667,24.546667,POINT (10.13570 54.29439),1220.0
80031716,FRANKFURT(ODER)PBF,52.336221,14.547213,29.626168,909.034268,POINT (14.54721 52.33622),6155.0
80236836,BAD DUERRENBERG,51.305129,12.071229,27.066667,4.903333,POINT (12.07123 51.30513),6367.0
80141077,SOELLINGEN (B KARLSRUHE),48.988225,8.542943,14.738462,0.0,POINT (8.54294 48.98822),4200.0
80225326,ROTTENDORF,49.79343,10.030273,51.081699,48.124183,POINT (10.03027 49.79343),5910.0
80101592,ESSEN-ALTENESSEN,51.484365,7.004682,23.457447,21.663121,POINT (7.00468 51.48436),2650.0
80178822,APPENWEIER,48.543093,7.973906,62.634375,10.090625,POINT (7.97391 48.54309),4280.0
80264879,PLEINTING,48.65961,13.120032,21.462046,0.0,POINT (13.12003 48.65961),5830.0
80113365,DARMSTADT HBF,49.873621,8.630561,60.195893,61.658768,POINT (8.63056 49.87362),3601.0
80241117,WAHLITZ,52.109154,11.789087,27.783019,12.506289,POINT (11.78909 52.10915),6410.0
80137646,BREMEN-HEMELINGEN,53.055708,8.88781,17.022124,23.973451,POINT (8.88781 53.05571),2200.0
80632109,LUDWIGSHAFEN (RHEIN) MITTE,49.478935,8.45222,69.54375,0.0,POINT (8.45222 49.47893),3522.0
80230011,HALLE(SAALE) GBF,51.49164,11.989959,38.723729,40.549153,POINT (11.98996 51.49164),6403.0
80263970,STRAUBING,48.87794,12.575992,49.705696,52.743671,POINT (12.57599 48.87794),5830.0
80103648,EHRINGHAUSEN (KR LIPPSTADT),51.662813,8.44926,20.748936,0.0,POINT (8.44926 51.66281),1760.0
80226134,TRUBBACHBRUECKE,49.707514,11.072408,19.026316,3.342105,POINT (11.07241 49.70751),5900.0
80661751,MUEHLACKER ROESSLESWEG,48.95642,8.860722,45.531646,4.050633,POINT (8.86072 48.95642),4800.0
80234526,GROEBERS,51.432694,12.117485,32.111111,15.899306,POINT (12.11749 51.43269),6403.0
80270462,LANGHAGEN,53.682945,12.426036,15.039062,3.050781,POINT (12.42604 53.68294),6325.0
80200618,THANN-MATZBACH,48.26651,12.047663,17.714912,24.27193,POINT (12.04766 48.26651),5600.0
80136325,CELLE,52.61795,10.062852,68.731975,62.680251,POINT (10.06285 52.61795),1720.0
80304360,HAMBURG-BILLWERDER-MOORFLEET,53.515512,10.097078,57.660377,11.443396,POINT (10.09708 53.51551),6100.0
80201806,FISCHBACH(INN),47.71371,12.144387,20.785942,13.811502,POINT (12.14439 47.71371),5702.0
80012419,OTTERSBERG (HAN),53.096879,9.133149,36.547468,11.405063,POINT (9.13315 53.09688),2200.0
80319442,HAMBURG OBERHAFEN,53.5365,10.024568,107.209375,38.75,POINT (10.02457 53.53650),2200.0
80130617,FREDEN (LEINE),51.92914,9.899039,77.275,12.390625,POINT (9.89904 51.92914),1732.0
80155655,GREMBERG,50.911537,7.024648,38.463327,82.398032,POINT (7.02465 50.91154),2621.0
80226746,GOSSMANNSDORF,49.6865,10.0259,64.396875,0.0,POINT (10.02590 49.68650),5321.0
80148460,ANNABURG,51.729441,13.033556,18.302682,29.172414,POINT (13.03356 51.72944),6207.0
80263756,ROHRBACH (OBERBAY),48.298159,12.551407,12.779661,7.449153,POINT (12.55141 48.29816),5700.0
80034967,SEDDIN,52.294827,12.993093,25.069032,87.804516,POINT (12.99309 52.29483),6124.0
80105197,HERRINGEN,51.6437,7.766513,19.54,15.88,POINT (7.76651 51.64370),2912.0
80692244,BADEN-BADEN REBLAND,48.733926,8.146852,28.90429,0.0,POINT (8.14685 48.73393),4280.0
80234849,DAHLEN (SACHS),51.350944,12.984646,25.901274,3.347134,POINT (12.98465 51.35094),6363.0
80227223,WICKLESGREUTH,49.311388,10.7105,27.931818,10.340909,POINT (10.71050 49.31139),5902.0
80266122,HOF HBF STADT 1,50.34983,11.918071,10.264706,0.0,POINT (11.91807 50.34983),6362.0
80190603,NIERSTEIN,49.872609,8.342181,18.737557,3.00905,POINT (8.34218 49.87261),3522.0
80021469,HASPELMOOR,48.22374,11.098482,44.176101,0.0,POINT (11.09848 48.22374),5581.0
80352773,AHLSHAUSEN,51.802544,9.970061,25.136986,6.232877,POINT (9.97006 51.80254),1733.0
80270496,KRONSKAMP,53.933672,12.314811,15.505792,0.0,POINT (12.31481 53.93367),6325.0
80210914,LEER(OSTFRIESL),53.232915,7.46621,28.273438,43.320312,POINT (7.46621 53.23291),2931.0
80224717,SCHWEINFURT STADT,50.046858,10.242983,17.559829,7.038462,POINT (10.24298 50.04686),5231.0
80253476,BECKINGEN (SAAR),49.386841,6.690254,20.361111,0.0,POINT (6.69025 49.38684),3230.0
80195073,KAMP-BORNHOFEN,50.227921,7.61923,65.789116,9.914966,POINT (7.61923 50.22792),3507.0
80181271,KARLSRUHE-DURLACH,49.002025,8.462449,24.413043,15.83913,POINT (8.46245 49.00203),4217.0
80112987,BICKENBACH(BERGSTR),49.761353,8.604395,58.173502,8.378549,POINT (8.60440 49.76135),3601.0
80118133,HANNOVER BISMARCKSTRASSE,52.35388,9.765488,33.387218,11.018797,POINT (9.76549 52.35388),1753.0
80105494,SCHWERTE HEIDE,51.4632,7.5827,33.31457,8.649007,POINT (7.58270 51.46320),2842.0
80081885,LEVERKUSEN-MORSBROICH,51.032497,7.026958,77.284345,18.789137,POINT (7.02696 51.03250),2324.0
80112839,ERZHAUSEN,49.95178,8.651432,28.294915,9.077966,POINT (8.65143 49.95178),3688.0
80112318,MAINZ-BISCHOFSHEIM,49.994215,8.35909,71.241724,210.838676,POINT (8.35909 49.99421),3525.0
80200063,SALZBURG HBF GRENZE GNIGL,47.821556,13.030862,22.394834,0.184502,POINT (13.03086 47.82156),0.0
80151092,GREMBERG SUEDSEITE,50.903172,7.038168,56.221228,308.842711,POINT (7.03817 50.90317),2666.0
80144147,OBERHAUSEN,49.26054,8.503386,18.648402,1.744292,POINT (8.50339 49.26054),4080.0
80291062,ULM HBF,48.40395,9.974459,32.902216,91.162973,POINT (9.97446 48.40395),4542.0
80109470,WIESBADEN-BIEBRICH,50.048799,8.237772,65.421053,23.906621,POINT (8.23777 50.04880),3507.0
80034223,BERLIN EICHGESTELL,52.45848,13.559088,24.498392,6.842444,POINT (13.55909 52.45848),6153.0
80290841,KUCHEN,48.640007,9.804082,35.327526,0.0,POINT (9.80408 48.64001),4700.0
80142919,KORK,48.5712,7.874398,17.942149,1.557851,POINT (7.87440 48.57120),4260.0
80169623,ZORNEDING,48.089025,11.832989,38.328025,16.563694,POINT (11.83299 48.08902),5555.0
80290171,LUDWIGSBURG PBF,48.894062,9.18588,77.496855,109.380503,POINT (9.18588 48.89406),4931.0
80144345,BASEL BAD RBF,47.588588,7.606162,18.582222,169.873333,POINT (7.60616 47.58859),4425.0
80235952,LEIPZIG-PLAGWITZ,51.326724,12.322457,17.417355,5.752066,POINT (12.32246 51.32672),6383.0
80051813,GREBENSTEIN,51.448391,9.420436,27.290837,5.709163,POINT (9.42044 51.44839),2550.0
80111724,WOLFGANG (KR HANAU),50.122678,8.955315,47.921384,74.553459,POINT (8.95532 50.12268),3600.0
80017186,HAMBURG SUEDERELBBRUECKE,53.48101,10.001259,33.350168,18.93266,POINT (10.00126 53.48101),1255.0
80031484,BERLIN-KAROW WEST,52.6135,13.4553,17.417582,13.487179,POINT (13.45530 52.61350),6087.0
80290759,EISLINGEN(FILS),48.69753,9.706239,35.910035,87.875433,POINT (9.70624 48.69753),4700.0
80196980,KAISERSLAUTERN HBF,49.437029,7.76986,33.031746,181.422222,POINT (7.76986 49.43703),3303.0
80098319,OBERHAUSEN-OSTERFELD ABZW,51.49368,6.870947,25.688581,12.653979,POINT (6.87095 51.49368),2320.0
80138396,KIRCHHAMMELWARDEN,53.305854,8.47526,18.242553,0.0,POINT (8.47526 53.30585),1503.0
80142414,MUGGENSTURM,48.877368,8.275495,43.556604,49.053459,POINT (8.27549 48.87737),4000.0
80021063,DINKELSCHERBEN,48.3443,10.587707,28.223684,31.741228,POINT (10.58771 48.34430),5302.0
80156802,LEIPZIG MESSE,51.395813,12.389371,35.058252,48.462783,POINT (12.38937 51.39581),6411.0
80200709,WALPERTSKIRCHEN,48.261249,11.9723,17.353982,0.0,POINT (11.97230 48.26125),5600.0
80053710,WOLFERSHAUSEN,51.186598,9.4512,26.4375,2.518382,POINT (9.45120 51.18660),3900.0
80719104,COTTBUS-SANDOW,51.755126,14.353602,22.131833,0.0,POINT (14.35360 51.75513),6345.0
80060129,PIRNA,50.96375,13.929822,23.468599,32.038647,POINT (13.92982 50.96375),6240.0
80077719,GRUENAUER KREUZ NORD,52.426377,13.561893,25.620192,19.373397,POINT (13.56189 52.42638),6147.0
80392514,GONDELSHEIM SCHLOSSSTADION,49.065727,8.663716,33.539683,0.0,POINT (8.66372 49.06573),4130.0
80135400,LEHRTE,52.377866,9.974706,104.403141,378.513089,POINT (9.97471 52.37787),6107.0
80164848,BLANKENHEIM (KR SGH) BEZ. KREIS,51.503852,11.426972,14.449438,7.966292,POINT (11.42697 51.50385),6343.0
80209338,BRITZ,52.873287,13.821068,17.414847,2.218341,POINT (13.82107 52.87329),6759.0
80234831,DORNREICHENBACH,51.351555,12.877914,26.127389,19.273885,POINT (12.87791 51.35155),6363.0
80204990,MUENCHEN NORD RBF,48.196443,11.485116,39.724832,368.005453,POINT (11.48512 48.19644),5560.0
80293837,BOEBLINGEN,48.68813,9.004899,20.525641,222.051282,POINT (9.00490 48.68813),4871.0
80290999,WESTERSTETTEN,48.525442,9.94474,35.607639,18.0625,POINT (9.94474 48.52544),4700.0
80153411,EILENDORF,50.785569,6.15507,22.481229,1.392491,POINT (6.15507 50.78557),2600.0
80010892,HAMBURG DAMMTOR,53.560829,9.99076,13.609195,0.0,POINT (9.99076 53.56083),6100.0
80053595,KASSEL RBF,51.322636,9.458851,59.783898,348.162076,POINT (9.45885 51.32264),3900.0
80060020,SCHOENA,50.877872,14.232613,22.629032,28.822581,POINT (14.23261 50.87787),6240.0
80881995,FREIHALDEN UEST,48.387873,10.496838,24.913242,1.972603,POINT (10.49684 48.38787),5302.0
80319541,REGENSBURG HAFEN ABZW,49.015407,12.132876,20.627273,16.772727,POINT (12.13288 49.01541),5500.0
80106948,GUNTERSBLUM,49.79188,8.351202,19.089286,7.602679,POINT (8.35120 49.79188),3522.0
80194076,FRANKENSTEIN (PFALZ),49.438925,7.969813,31.902208,0.0,POINT (7.96981 49.43892),3280.0
80293951,GAEUFELDEN,48.559736,8.85005,13.08867,0.0,POINT (8.85005 48.55974),4860.0
80139030,BURG,52.3967,9.71275,28.516981,11.701887,POINT (9.71275 52.39670),1710.0
80294439,HOEFINGEN,48.81604,9.026049,33.619433,0.0,POINT (9.02605 48.81604),4810.0
80224733,BERGRHEINFELD,49.99607,10.15741,13.705128,0.0,POINT (10.15741 49.99607),5102.0
80160788,EISENACH WEST,50.979572,10.30551,31.969283,3.262799,POINT (10.30551 50.97957),6340.0
80194977,VALLENDAR,50.399587,7.61086,57.904762,3.567766,POINT (7.61086 50.39959),2324.0
80131169,GEHRENRODE,51.928498,9.999798,25.201835,3.633028,POINT (9.99980 51.92850),1733.0
80202341,MUENCHEN OST PBF,48.12869,11.606477,42.265176,113.482428,POINT (11.60648 48.12869),5603.0
80637850,SIEGEN - STADT SIEGEN,50.8686,8.067436,13.362903,1.524194,POINT (8.06744 50.86860),2881.0
80130583,EINBECK,51.808377,9.923285,77.75,97.215625,POINT (9.92328 51.80838),1732.0
80273565,SCHWERIN-GOERRIES NORD,53.610065,11.385381,15.427928,0.0,POINT (11.38538 53.61006),6441.0
80241034,GUETERGLUECK,51.995373,11.986359,28.422956,22.283019,POINT (11.98636 51.99537),6410.0
80105098,DREIEICH-BUCHSCHLAG,50.021606,8.661352,29.442177,5.653061,POINT (8.66135 50.02161),3688.0
80112508,GROSS ROHRHEIM,49.714225,8.476971,60.949527,20.485804,POINT (8.47697 49.71422),4010.0
80093161,DUISBURG HBF,51.429669,6.776623,13.319079,9.009868,POINT (6.77662 51.42967),2670.0
80201491,BERNAU A CHIEMSEE,47.816456,12.380933,23.234483,0.0,POINT (12.38093 47.81646),5703.0
80110742,NIEDERMITTLAU,50.178262,9.11063,47.386792,1.459119,POINT (9.11063 50.17826),3600.0
80251835,TRIER SUED,49.745258,6.636725,22.787162,13.266892,POINT (6.63673 49.74526),3132.0
80231530,HOHENTHURM,51.5166,12.098005,12.66129,1.733871,POINT (12.09801 51.51660),6132.0
80240788,WOLMIRSTEDT,52.252137,11.635591,22.70751,17.150198,POINT (11.63559 52.25214),6402.0
80718502,BIETIGHEIM-BISSINGEN ELLENTAL,48.955314,9.123791,50.867089,0.0,POINT (9.12379 48.95531),4800.0
80060053,KRIPPEN,50.913139,14.1619,22.646302,4.382637,POINT (14.16190 50.91314),6240.0
80034991,WILHELMSHORST,52.335663,13.068547,31.107023,0.0,POINT (13.06855 52.33566),6118.0
80135749,BUECKEBURG,52.267735,9.04841,65.778125,32.2875,POINT (9.04841 52.26774),1700.0
80151316,KALDENKIRCHEN,51.326622,6.203892,25.053846,42.523077,POINT (6.20389 51.32662),2510.0
80104661,BINGEN (RHEIN) HBF,49.969019,7.884108,33.05,5.05,POINT (7.88411 49.96902),3515.0
80062430,NIEDERWARTHA PUMPSPEICHERWERKE,51.092795,13.607079,29.542763,0.0,POINT (13.60708 51.09280),6248.0
80107995,FRANKFURT-LOUISA,50.084046,8.670198,26.783333,25.02,POINT (8.67020 50.08405),3688.0
80114074,BUTZBACH,50.431489,8.669585,37.538194,12.583333,POINT (8.66958 50.43149),3900.0
80253518,BESSERINGEN,49.475669,6.60366,20.423077,1.835664,POINT (6.60366 49.47567),3230.0
80154815,BRUEHL,50.829316,6.912903,42.384127,8.115873,POINT (6.91290 50.82932),2630.0
80160846,GERSTUNGEN,50.96584,10.0665,48.349673,172.081699,POINT (10.06650 50.96584),6707.0
80190728,BOBENHEIM,49.588138,8.350807,26.355634,9.697183,POINT (8.35081 49.58814),3522.0
80231514,"LANDSBERG(B HALLE, SAALE)",51.532504,12.166117,12.635659,20.395349,POINT (12.16612 51.53250),6132.0
80729277,BUEHL (BADEN) F,48.699693,8.128033,33.719243,8.053628,POINT (8.12803 48.69969),4280.0
80110478,HAITZ-HOECHST,50.208634,9.226821,47.383648,6.874214,POINT (9.22682 50.20863),3600.0
80080234,HAGEN-HENGSTEY,51.412269,7.466749,60.639241,36.81962,POINT (7.46675 51.41227),2823.0
80051722,LAMERDEN,51.525174,9.33039,27.534137,18.301205,POINT (9.33039 51.52517),2550.0
80235648,PADITZ,50.9662,12.461714,19.066946,10.732218,POINT (12.46171 50.96620),6362.0
80130286,IMMENSEN-ARPKE,52.391356,10.084479,28.581882,15.567944,POINT (10.08448 52.39136),6107.0
80017129,RAINWEG,53.565,9.94313,13.727811,10.733728,POINT (9.94313 53.56500),6100.0
80339085,BONN-BAD GODESBERG,50.683814,7.159353,36.191083,6.219745,POINT (7.15935 50.68381),2630.0
80110106,ERBACH (RHEINGAU),50.02442,8.0954,65.725086,6.419244,POINT (8.09540 50.02442),3507.0
80110122,NIEDERWALLUF,50.037161,8.159567,64.309524,35.414966,POINT (8.15957 50.03716),3507.0
80168120,SCHULPFORTE,51.146103,11.74571,32.383648,3.235849,POINT (11.74571 51.14610),6340.0
80363549,NUERNBERG REICHSWALD,49.403796,11.180412,58.006289,95.386792,POINT (11.18041 49.40380),5963.0
80263749,NEUMARKT-ST VEIT,48.361381,12.505351,12.898305,13.271186,POINT (12.50535 48.36138),5720.0
80111773,KLEINOSTHEIM,50.004135,9.072525,28.637631,11.205575,POINT (9.07253 50.00413),3660.0
80134148,HILDESHEIM,52.160685,9.952413,16.024641,15.74538,POINT (9.95241 52.16069),1773.0
80202333,MUENCHEN SUED,48.123131,11.559732,53.752351,313.554859,POINT (11.55973 48.12313),5531.0
80142810,BUEHL(BADEN),48.69744,8.13007,28.900332,0.0,POINT (8.13007 48.69744),4280.0
80236794,MILTITZ(B LEIPZIG),51.325221,12.255667,27.120805,1.40604,POINT (12.25567 51.32522),6367.0
80223792,ROTH,49.242819,11.08402,30.605263,35.023026,POINT (11.08402 49.24282),5971.0
80254466,NEUNKIRCHEN(SAAR)HBF,49.35472,7.17709,36.46875,201.05,POINT (7.17709 49.35472),3511.0
80234807,BENNEWITZ,51.356667,12.709877,26.736508,3.663492,POINT (12.70988 51.35667),6363.0
80153130,KOELN-NIPPES,50.968,6.940365,37.067797,16.549153,POINT (6.94036 50.96800),2620.0
80623827,RADEBEUL-NAUNDORF,51.110323,13.599365,29.526316,3.092105,POINT (13.59937 51.11032),6363.0
80210203,KATTENVENNE,52.114462,7.8611,32.163121,4.638298,POINT (7.86110 52.11446),2200.0
80628610,DOERPEN-LEHE,53.013119,7.344892,28.236641,4.522901,POINT (7.34489 53.01312),2931.0
80270611,ROSTOCK SEEHAFEN,54.11933,12.158728,27.698305,219.010169,POINT (12.15873 54.11933),6925.0
80204859,MARZLING,48.4104,11.7977,16.806061,0.0,POINT (11.79770 48.41040),5500.0
80234419,LEIPZIG-THEKLA,51.3723,12.428327,70.548611,78.760417,POINT (12.42833 51.37230),6369.0
80231415,LU WITTENBERG,51.8693,12.66382,25.051613,46.716129,POINT (12.66382 51.86930),6207.0
80112953,DARMSTADT SUED,49.854156,8.63713,58.072555,8.334385,POINT (8.63713 49.85416),3601.0
80135079,HANNOVER-LINDEN,52.354878,9.715622,156.831776,390.431464,POINT (9.71562 52.35488),1760.0
80179812,EBERBACH,49.4673,8.98547,11.346939,5.877551,POINT (8.98547 49.46730),4113.0
80154682,KOELN WEST,50.9453,6.93463,83.152038,44.804075,POINT (6.93463 50.94530),2630.0
80130476,FRIEDLAND (HAN),51.421582,9.914787,74.603125,22.790625,POINT (9.91479 51.42158),3600.0
80138214,BREMEN NEUSTADT,53.078344,8.787244,40.733553,36.598684,POINT (8.78724 53.07834),1500.0
80190322,HIRZENACH,50.17623,7.647771,33.04,4.423333,POINT (7.64777 50.17623),3507.0
80295162,ROMMELSHAUSEN,48.815556,9.319108,10.934783,0.0,POINT (9.31911 48.81556),4710.0
80160499,WANDERSLEBEN,50.90793,10.8539,27.205674,20.673759,POINT (10.85390 50.90793),6340.0
80251132,BENGEL,50.01158,7.05863,32.209836,6.196721,POINT (7.05863 50.01158),3010.0
80157313,LEVERKUSEN WERKSTAETTE,51.0485,7.014127,76.746795,9.849359,POINT (7.01413 51.04850),2730.0
80206763,HOCKERODA,50.597724,11.434584,31.116279,3.872093,POINT (11.43458 50.59772),6686.0
80290270,STUTTGART-ZAZENHAUSEN,48.84385,9.189895,61.81068,30.430421,POINT (9.18989 48.84385),4812.0
80180919,HOCKENHEIM,49.317434,8.537152,90.171875,49.89375,POINT (8.53715 49.31743),4080.0
80103085,OBERHAUSEN WEST,51.478245,6.826025,34.051831,376.131997,POINT (6.82602 51.47825),2321.0
80113076,HEPPENHEIM(BERGSTR),49.643017,8.634079,59.05836,17.700315,POINT (8.63408 49.64302),3601.0
80204503,PETERSHAUSEN (OBERBAY),48.41289,11.4706,32.832278,16.955696,POINT (11.47060 48.41289),5544.0
80194803,UNKEL,50.601277,7.220138,85.18123,13.728155,POINT (7.22014 50.60128),2630.0
80807628,DRESDEN FREIBERGER STRASSE,51.048678,13.719304,26.909968,16.913183,POINT (13.71930 51.04868),6244.0
80070078,HAMBURG HBF,53.553508,10.00629,13.096491,29.210526,POINT (10.00629 53.55351),6100.0
80185835,WITTLICH HBF,49.973309,6.94358,32.411184,21.282895,POINT (6.94358 49.97331),3010.0
80692285,SINZHEIM (B BUEHL) NORD,48.767454,8.169195,28.613861,0.0,POINT (8.16920 48.76745),4280.0
80075564,BIESDORFER KREUZ NORD,52.525727,13.536742,23.386986,21.311644,POINT (13.53674 52.52573),6072.0
80082651,GREVENBRUECK(WESTF),51.14174,8.018144,23.280172,2.198276,POINT (8.01814 51.14174),2800.0
80242966,ERFURT GUETERBAHNHOF,50.974929,11.055484,27.658491,42.29434,POINT (11.05548 50.97493),6340.0
80226100,ASCHAFFENBURG HBF,49.981539,9.147079,41.162136,51.85534,POINT (9.14708 49.98154),5228.0
80040022,BESTENSEE,52.243389,13.636722,20.956835,10.381295,POINT (13.63672 52.24339),6142.0
80154773,KOELN EIFELTOR N/S,50.905315,6.92959,33.103257,150.691025,POINT (6.92959 50.90532),2643.0
80201558,RIMSTING,47.886275,12.34464,14.702326,0.0,POINT (12.34464 47.88627),5703.0
80155762,MENDEN (RHEINL),50.78115,7.1503,82.987013,9.909091,POINT (7.15030 50.78115),2324.0
80623801,DRESDEN-PIESCHEN,51.081785,13.724199,13.864865,0.837838,POINT (13.72420 51.08179),6363.0
80290387,STUTTGART-ZUFFENHAUSEN,48.830536,9.168231,10.535714,4.75,POINT (9.16823 48.83054),4810.0
80203711,SOLNHOFEN,48.892484,10.994738,41.403785,45.283912,POINT (10.99474 48.89248),5501.0
80054072,MALSFELD,51.09751,9.5358,31.701587,6.511111,POINT (9.53580 51.09751),6340.0
80204685,MUENCHEN-ALLACH,48.192968,11.466871,21.537037,52.740741,POINT (11.46687 48.19297),5544.0
80105361,DORTMUND-NETTE,51.558513,7.400682,20.903846,2.464744,POINT (7.40068 51.55851),2132.0
80313726,AACHEN SCHANZ,50.769746,6.073718,22.141414,23.020202,POINT (6.07372 50.76975),2553.0
80137331,NIENBURG(WESER),52.647006,9.21885,69.282132,178.551724,POINT (9.21885 52.64701),1743.0
80253450,DILLINGEN (SAAR),49.353011,6.722678,45.1,614.751613,POINT (6.72268 49.35301),3230.0
80056457,HAUNETAL-NEUKIRCHEN,50.771223,9.6938,96.071651,28.476636,POINT (9.69380 50.77122),3600.0
80107318,NIDDERAU,50.231455,8.879988,23.307692,7.158371,POINT (8.87999 50.23145),3745.0
80225342,WUERZBURG HBF,49.801663,9.93615,88.50234,389.868955,POINT (9.93615 49.80166),5910.0
80140061,MANNHEIM-KAEFERTAL,49.50265,8.505018,51.620915,127.921569,POINT (8.50502 49.50265),4040.0
80221630,ERLANGEN,49.595924,11.001729,22.847599,36.74739,POINT (11.00173 49.59592),5919.0
80100313,DORTMUND-OBEREVING,51.543425,7.47983,18.747273,89.896364,POINT (7.47983 51.54342),2132.0
80217208,MUENSTER LECHTENBERG,51.91773,7.63857,22.227451,10.011765,POINT (7.63857 51.91773),2931.0
80112060,RUESSELSHEIM,49.992206,8.414032,15.972789,3.517007,POINT (8.41403 49.99221),3520.0
80201814,BRANNENBURG,47.741947,12.107689,20.247588,11.665595,POINT (12.10769 47.74195),5702.0
80195875,STEINEFRENZ,50.448628,7.93957,10.0,3.23,POINT (7.93957 50.44863),3731.0
80051821,IMMENHAUSEN,51.4273,9.464402,27.200803,4.261044,POINT (9.46440 51.42730),2550.0
80031286,GLASOWER DAMM,52.3495,13.41717,28.150298,13.8125,POINT (13.41717 52.34950),6151.0
80082560,KREUZTAL,50.955522,7.993773,34.82716,129.868313,POINT (7.99377 50.95552),2870.0
80226753,OCHSENFURT,49.663565,10.071647,64.8,89.321875,POINT (10.07165 49.66356),5321.0
80132530,PEINE,52.318816,10.243375,81.182812,75.86875,POINT (10.24338 52.31882),1730.0
80190843,GOEPPINGEN,48.700689,9.652707,36.555556,49.753472,POINT (9.65271 48.70069),4700.0
80227181,ROSSTAL WEGBRUECKE,49.394974,10.885481,27.67037,0.0,POINT (10.88548 49.39497),5902.0
80234815,WURZEN,51.36576,12.74034,26.623418,15.167722,POINT (12.74034 51.36576),6363.0
80055244,KASSEL NORDWEST,51.340892,9.472112,21.385301,16.407572,POINT (9.47211 51.34089),3926.0
80102848,HALDERN (RHEINL),51.772391,6.456059,32.03125,13.472222,POINT (6.45606 51.77239),2270.0
80194043,NEUSTADT(WEINSTR)HBF,49.350678,8.14358,32.719821,29.853949,POINT (8.14358 49.35068),3436.0
80155754,FRIEDRICH WILHELMSHUETTE,50.802093,7.159412,83.012945,21.022654,POINT (7.15941 50.80209),2690.0
80808543,BUECHEN STEINAUTAL,53.49016,10.590777,23.69103,1.850498,POINT (10.59078 53.49016),6100.0
80115428,ELZ (KR LIMBURG/LAHN) SUED,50.40958,8.033037,10.0,1.210526,POINT (8.03304 50.40958),3731.0
80011338,HAMBURG HOHE SCHAAR,53.494763,9.974986,16.48642,0.123457,POINT (9.97499 53.49476),0.0
80112342,NAUHEIM (B GROSS-GERAU),49.943557,8.450883,82.691589,15.221184,POINT (8.45088 49.94356),3530.0
80117200,BEBRA LAEMMERBERG ABZW,50.9532,9.798365,35.305031,11.216981,POINT (9.79837 50.95320),3801.0
80190272,RHENS,50.281478,7.62047,33.026667,3.973333,POINT (7.62047 50.28148),3507.0
80281212,NEUSTRELITZ HBF,53.359767,13.0749,14.184314,9.686275,POINT (13.07490 53.35977),6942.0
80139428,ESCHERDE,52.170696,9.844362,23.967742,5.797235,POINT (9.84436 52.17070),1770.0
80222141,NUERNBERG-LANGWASSER,49.410745,11.138542,78.015625,232.1875,POINT (11.13854 49.41074),5963.0
80144139,MUELLHEIM(BADEN),47.811158,7.60036,46.640625,38.36875,POINT (7.60036 47.81116),4314.0
80138297,SCHIERBROK,53.086108,8.57977,27.569811,0.0,POINT (8.57977 53.08611),1500.0
80096008,HAGEN-VORHALLE,51.379985,7.433679,33.953901,43.868794,POINT (7.43368 51.37998),2825.0
80225490,GEMUENDEN (MAIN),50.053077,9.694939,72.951334,103.695447,POINT (9.69494 50.05308),5200.0
80060087,KOENIGSTEIN (SAECHS SCHWEIZ) HP,50.919375,14.078045,22.810289,2.655949,POINT (14.07804 50.91938),6240.0
80117119,FRANKFURT MAINZER LANDSTRASSE,50.100408,8.628196,15.198238,3.810573,POINT (8.62820 50.10041),3683.0
80202317,MUENCHEN-FREIMANN,48.190214,11.6121,37.577049,82.84918,POINT (11.61210 48.19021),5560.0
80011866,HAMBURG-NEUGRABEN,53.474252,9.85319,13.679245,13.051887,POINT (9.85319 53.47425),1271.0
80340380,NEUNKIRCHEN (SAAR) BAUKNECHT,49.347538,7.229719,14.967078,0.674897,POINT (7.22972 49.34754),3282.0
80234757,GERICHSHAIN,51.35502,12.587001,26.734177,0.639241,POINT (12.58700 51.35502),6363.0
80149195,BIEDERITZ,52.154131,11.717879,47.439252,62.165109,POINT (11.71788 52.15413),6880.0
80150441,KREFELD-OPPUM,51.330801,6.611466,16.641593,1.681416,POINT (6.61147 51.33080),2610.0
80224980,HAGENBUECHACH,49.5382,10.7687,47.221122,9.260726,POINT (10.76870 49.53820),5910.0
80200519,DORFEN BAHNHOF,48.26797,12.161117,17.541485,37.842795,POINT (12.16112 48.26797),5600.0
80221580,ANSBACH STADT,49.253217,10.625018,25.140523,4.133987,POINT (10.62502 49.25322),5321.0
80203703,PAPPENHEIM,48.926907,10.964596,41.163522,0.0,POINT (10.96460 48.92691),5501.0
80062448,NIEDERWARTHA,51.094593,13.605973,30.203279,1.960656,POINT (13.60597 51.09459),6248.0
80290296,STUTTGART EBITZWEG,48.803847,9.231756,61.397394,0.013029,POINT (9.23176 48.80385),4713.0
80056374,FULDA,50.556113,9.684211,100.771904,58.732802,POINT (9.68421 50.55611),3600.0
80102665,OBERHAUSEN-STERKRADE,51.511829,6.844188,39.078767,57.164384,POINT (6.84419 51.51183),2270.0
80066993,WERDAU NORD,50.743624,12.371666,21.236,1.6,POINT (12.37167 50.74362),6362.0
80062422,COSSEBAUDE,51.085241,13.632436,30.346405,47.627451,POINT (13.63244 51.08524),6248.0
80211953,RINGEL,52.137622,7.87803,32.512281,7.736842,POINT (7.87803 52.13762),2200.0
80290163,ASPERG,48.9076,9.147548,73.915094,23.63522,POINT (9.14755 48.90760),4800.0
80138370,ELSFLETH,53.236095,8.464568,18.390756,12.319328,POINT (8.46457 53.23609),1503.0
80100222,OBERHAUSEN-OSTERFD S,51.49986,6.88512,51.181934,162.742366,POINT (6.88512 51.49986),2320.0
80040279,COTTBUS-WILLMERSDORF NORD,51.816159,14.384951,15.683636,0.0,POINT (14.38495 51.81616),6220.0
80081364,SCHWELM,51.29188,7.29049,22.346304,36.836576,POINT (7.29049 51.29188),2701.0
80111815,RUECKERSBACHER SCHLUCHT,50.020222,9.057186,28.432056,0.0,POINT (9.05719 50.02022),3660.0
80264176,PLATTLING,48.780798,12.865399,52.855799,190.053292,POINT (12.86540 48.78080),5830.0
80143081,WINDSCHLAEG,48.51612,7.965941,39.278146,20.294702,POINT (7.96594 48.51612),4263.0
80241133,PROEDEL,52.038135,11.913346,28.166667,3.981132,POINT (11.91335 52.03813),6410.0
80223719,NUERNBERG-EIBACH,49.4112,11.04945,35.451299,51.113636,POINT (11.04945 49.41120),5971.0
80113456,HERGERSHAUSEN,49.93737,8.915615,43.730104,0.044983,POINT (8.91562 49.93737),3557.0
80190041,ROLANDSECK,50.631462,7.20769,37.136943,4.681529,POINT (7.20769 50.63146),2630.0
80109041,FRANKFURT AM MAIN STADION,50.06815,8.633342,31.523411,28.369565,POINT (8.63334 50.06815),4010.0
80054049,KOERLE,51.171553,9.515074,31.899054,2.359621,POINT (9.51507 51.17155),6340.0
80240309,OCHTMERSLEBEN,52.145441,11.383012,48.30094,3.545455,POINT (11.38301 52.14544),6110.0
80224022,PLEINFELD,49.1081,10.978678,30.973597,28.280528,POINT (10.97868 49.10810),5330.0
80067132,SYRAU,50.545784,12.085853,15.347059,2.135294,POINT (12.08585 50.54578),6362.0
80101147,BOCHUM-LANGENDREER,51.4788,7.317961,35.797197,28.610882,POINT (7.31796 51.47880),2158.0
80136911,ISERNHAGEN,52.486035,9.803747,15.347032,1.817352,POINT (9.80375 52.48604),1710.0
80040063,ODERIN,52.075088,13.7287,20.877698,0.0,POINT (13.72870 52.07509),6142.0
80273227,DERGENTHIN,53.084503,11.750321,23.412969,8.276451,POINT (11.75032 53.08450),6100.0
80163212,GOESCHWITZ(SAALE),50.88511,11.5926,19.158537,34.079268,POINT (11.59260 50.88511),6307.0
80035287,NAUEN,52.614277,12.886813,17.65283,9.116981,POINT (12.88681 52.61428),6100.0
80113324,LADENBURG,49.473732,8.602613,56.62776,29.400631,POINT (8.60261 49.47373),3601.0
80151902,HERZOGENRATH,50.868576,6.093125,13.184466,9.325243,POINT (6.09312 50.86858),2550.0
80226704,WUERZBURG-HEIDINGSFELD OST,49.762775,9.953338,66.903125,68.2,POINT (9.95334 49.76277),5321.0
80040105,LUEBBEN HBF,51.940507,13.879356,20.770318,12.35689,POINT (13.87936 51.94051),6142.0
80153429,AACHEN-ROTHE ERDE,50.778159,6.126536,22.922559,12.205387,POINT (6.12654 50.77816),2600.0
80128991,DUESSELDORF HBF,51.221261,6.794032,15.6,23.9,POINT (6.79403 51.22126),2413.0
80130492,ROSDORF,51.50104,9.910317,74.659375,8.890625,POINT (9.91032 51.50104),3600.0
80231266,ZOEBERITZ,51.5063,12.034095,27.587549,1.042802,POINT (12.03410 51.50630),6403.0
80226035,PARTENSTEIN,50.03973,9.5248,38.986755,14.360927,POINT (9.52480 50.03973),5200.0
80190462,INGELHEIM,49.977194,8.05416,33.166667,17.98,POINT (8.05416 49.97719),3510.0
80297770,FREUDENSTEIN,49.038059,8.806269,15.675,3.315,POINT (8.80627 49.03806),4080.0
80143297,KOENDRINGEN,48.13829,7.8039,50.432602,11.943574,POINT (7.80390 48.13829),4000.0
80230086,MERSEBURG,51.355437,11.99305,49.519544,29.672638,POINT (11.99305 51.35544),6810.0
80012955,NEUMUENSTER,54.085276,9.983993,29.215531,103.985737,POINT (9.98399 54.08528),1220.0
80159509,DACHAU BAHNHOF,48.25468,11.444295,33.085443,14.351266,POINT (11.44430 48.25468),5544.0
80197681,ERFURT HBF,50.972508,11.038025,23.664234,39.576642,POINT (11.03802 50.97251),6340.0
80135160,VOELKSEN/ELDAGSEN,52.211875,9.626528,23.573034,0.0,POINT (9.62653 52.21187),1760.0
80204289,WOLNZACH BAHNHOF,48.608099,11.572405,33.561514,15.223975,POINT (11.57240 48.60810),5501.0
80389981,HUDE-LANGENBERG,53.102689,8.484588,27.566038,0.0,POINT (8.48459 53.10269),1500.0
80222984,PEGNITZ,49.759427,11.548431,12.077519,2.565891,POINT (11.54843 49.75943),5903.0
80234013,EILENBURG,51.45385,12.637152,18.390135,137.793722,POINT (12.63715 51.45385),6831.0
80295196,ENDERSBACH,48.81423,9.37128,11.213235,2.367647,POINT (9.37128 48.81423),4710.0
80297549,LAUDA,49.567064,9.710584,16.193717,26.518325,POINT (9.71058 49.56706),4920.0
80263103,SINZING (B REGENSBURG),48.997252,12.033546,13.558511,23.696809,POINT (12.03355 48.99725),5851.0
80296129,WALHEIM (WUERTT),49.010746,9.151999,27.429134,19.641732,POINT (9.15200 49.01075),4900.0
80132480,BEDDINGEN,52.219118,10.447673,18.225329,210.710526,POINT (10.44767 52.21912),1922.0
80062265,COSWIG(BZ DRESDEN),51.125418,13.578195,24.325383,126.279387,POINT (13.57819 51.12542),6363.0
80174805,NEUSS ALLERHEILIGEN,51.142673,6.755287,35.14527,5.361486,POINT (6.75529 51.14267),2610.0
80155507,KOELN-KALK NORD,50.940657,7.015438,71.633406,82.979031,POINT (7.01544 50.94066),2669.0
80295063,WILFERDINGEN-SINGEN,48.954163,8.5739,15.07772,15.590674,POINT (8.57390 48.95416),4200.0
80137067,WALLE (KR VERDEN),52.966869,9.255976,24.518828,37.627615,POINT (9.25598 52.96687),1960.0
80254235,SULZBACH (SAAR) ALTENWALD,49.312062,7.078341,30.081505,0.0,POINT (7.07834 49.31206),3511.0
80132571,HAEMELERWALD,52.355429,10.111789,80.071875,39.675,POINT (10.11179 52.35543),1730.0
80918730,KOBLENZ STADTMITTE,50.358074,7.590024,45.76875,0.0,POINT (7.59002 50.35807),3011.0
80055400,NEUHOF HARTBERG,50.454188,9.65695,26.495614,3.451754,POINT (9.65695 50.45419),1733.0
80245837,PRETZIER (ALTM),52.836436,11.264791,11.419355,0.0,POINT (11.26479 52.83644),6899.0
80143305,TENINGEN-MUNDINGEN,48.13155,7.824247,50.2875,0.0,POINT (7.82425 48.13155),4000.0
80032284,BIESDORFER KREUZ MITTE,52.514435,13.540975,20.665455,2.803636,POINT (13.54097 52.51443),6072.0
80135020,RETHEN(LEINE),52.286538,9.821284,74.535826,15.660436,POINT (9.82128 52.28654),1732.0
80137760,OLDENBUETTEL,53.285045,8.81153,34.675079,14.722397,POINT (8.81153 53.28504),1740.0
80142836,ACHERN,48.633993,8.065275,31.525723,6.609325,POINT (8.06527 48.63399),4280.0
80144170,SCHLIENGEN,47.761692,7.5698,34.603004,20.300429,POINT (7.56980 47.76169),4280.0
80137802,LOXSTEDT,53.475664,8.654056,34.611987,0.0,POINT (8.65406 53.47566),1740.0
80178285,WAIGOLSHAUSEN,49.96762,10.116571,17.059072,13.679325,POINT (10.11657 49.96762),5230.0
80103655,DEDINGHAUSEN,51.672333,8.3989,20.780591,0.0,POINT (8.39890 51.67233),1760.0
80056424,HUENFELD,50.673212,9.763459,95.943925,34.208723,POINT (9.76346 50.67321),3600.0
80132308,FRELLSTEDT,52.214144,10.914995,48.959248,26.689655,POINT (10.91499 52.21414),1900.0
80100180,GELSENKIRCHEN-BUER NORD,51.58588,7.04242,36.02439,26.571429,POINT (7.04242 51.58588),2252.0
80137679,BREMEN-WALLE,53.104272,8.786607,13.070352,0.0,POINT (8.78661 53.10427),1740.0
80253534,SAARHOELZBACH,49.516977,6.608909,20.222222,1.892361,POINT (6.60891 49.51698),3230.0
80223438,OCHENBRUCK,49.362726,11.254222,58.238994,18.342767,POINT (11.25422 49.36273),5850.0
80201970,ASSLING (OBERBAY),47.990845,11.994193,38.16879,17.834395,POINT (11.99419 47.99085),5510.0
80140210,HEIDELBERG HBF,49.404174,8.676164,21.747126,22.957854,POINT (8.67616 49.40417),4000.0
80297499,BOXBERG-WOELCHINGEN,49.485596,9.640048,15.467742,4.301075,POINT (9.64005 49.48560),4120.0
80254581,HOMBURG(SAAR)HBF,49.329298,7.338643,33.907937,180.053968,POINT (7.33864 49.32930),3282.0
80031773,WIESENAU,52.231896,14.583879,20.013468,0.0,POINT (14.58388 52.23190),6153.0
80137430,LANGWEDEL,52.9799,9.19637,49.122257,35.931034,POINT (9.19637 52.97990),1960.0
80140939,GONDELSHEIM (BADEN),49.06102,8.660228,33.526984,0.0,POINT (8.66023 49.06102),4130.0
80253211,SCHOENEFELD,52.392146,13.51598,28.724359,62.201923,POINT (13.51598 52.39215),6126.0
80021402,AUGSBURG HBF,48.36624,10.887011,34.066591,153.874718,POINT (10.88701 48.36624),5304.0
80151035,MOERS,51.451105,6.641666,31.151685,72.683521,POINT (6.64167 51.45110),2330.0
80140103,MANNHEIM HGBF,49.49819,8.44884,11.486034,89.189944,POINT (8.44884 49.49819),4032.0
80225227,MARKT EINERSHEIM,49.685713,10.284601,48.138158,59.263158,POINT (10.28460 49.68571),5910.0
80075473,BAD BELZIG,52.136086,12.595084,15.791165,2.51004,POINT (12.59508 52.13609),6553.0
80156257,MAGDEBURG-NEUSTADT,52.148558,11.640936,41.925,31.2125,POINT (11.64094 52.14856),6406.0
80143255,RINGSHEIM,48.248928,7.77403,49.736677,0.0,POINT (7.77403 48.24893),4000.0
80157867,SCHOENEBECK(ELBE),52.018479,11.735269,33.253472,18.111111,POINT (11.73527 52.01848),6423.0
80290064,MUEHLACKER,48.953607,8.84346,33.81774,16.363305,POINT (8.84346 48.95361),4840.0
80801480,HAGEN (HAN) HP,52.573469,9.407789,63.956113,0.0,POINT (9.40779 52.57347),1740.0
80172239,HOCHSTADT-MARKTZEULN,50.153545,11.172874,26.679012,28.0,POINT (11.17287 50.15355),5100.0
80016303,KUPFERMUEHLE,53.76398,10.326795,13.831818,0.0,POINT (10.32680 53.76398),1120.0
80142265,KARLSRUHE GBF,48.99773,8.425731,77.757862,438.616352,POINT (8.42573 48.99773),4213.0
80265066,PASSAU HBF,48.57469,13.45243,32.786469,250.98203,POINT (13.45243 48.57469),5845.0
80240846,DEMKER,52.518861,11.85565,23.996416,0.0,POINT (11.85565 52.51886),6402.0
80210195,OSTBEVERN,52.07153,7.809279,31.818815,7.672474,POINT (7.80928 52.07153),2200.0
80231100,HALLE ROSENGARTEN,51.446823,11.982566,23.294372,0.952381,POINT (11.98257 51.44682),6354.0
80103291,DUISBURG-HOCHFELD SUED MANNESMANN,51.391291,6.748826,20.902208,16.015773,POINT (6.74883 51.39129),2315.0
80210351,BELM,52.314564,8.13569,34.923077,9.113712,POINT (8.13569 52.31456),2200.0
80140426,WEINGARTEN (BADEN),49.059292,8.521863,14.85124,3.396694,POINT (8.52186 49.05929),4000.0
80033969,ZOSSEN,52.22325,13.4401,14.044444,13.788889,POINT (13.44010 52.22325),6543.0
80115675,EHRINGSHAUSEN (KR WETZLAR),50.595066,8.383875,21.424528,1.745283,POINT (8.38387 50.59507),2651.0
80137398,WAHNEBERGEN,52.89334,9.240982,67.288401,11.329154,POINT (9.24098 52.89334),1740.0
80224097,OBERHAID,49.930853,10.81827,18.502008,5.261044,POINT (10.81827 49.93085),5102.0
80136127,NEUBECKUM,51.800435,8.019924,43.157212,21.779579,POINT (8.01992 51.80044),2990.0
80284034,PASEWALK,53.516911,13.9909,11.0,13.0,POINT (13.99090 53.51691),6327.0
80200477,AMPFING,48.254018,12.412415,17.491228,15.087719,POINT (12.41241 48.25402),5600.0
80201145,TEISENDORF,47.84978,12.835989,23.37037,19.612795,POINT (12.83599 47.84978),5703.0
80204909,ECHING,48.303025,11.616892,17.106742,0.0,POINT (11.61689 48.30302),5500.0
80234427,LEIPZIG-HEITERBLICK,51.36925,12.4567,12.301205,20.963855,POINT (12.45670 51.36925),6371.0
80105379,NORDSTERN,51.526368,7.065837,74.084375,97.2375,POINT (7.06584 51.52637),2230.0
80099754,WESTHOFEN (WESTF),51.416911,7.519905,36.820513,19.717949,POINT (7.51990 51.41691),2843.0
80135012,HANNOVER-WUELFEL,52.326467,9.789295,91.685358,132.785047,POINT (9.78929 52.32647),1753.0
80135186,BAD MUENDER (DEISTER),52.1791,9.467789,23.338889,0.0,POINT (9.46779 52.17910),1760.0
80081182,LANGENFELD(RHEINL),51.09995,6.94172,13.255814,7.360465,POINT (6.94172 51.09995),2670.0
80042234,SENFTENBERG,51.527081,14.003663,30.695876,217.233677,POINT (14.00366 51.52708),6253.0
80067041,REICHENBACH (VOGTL) OB BF,50.627789,12.291716,16.347826,10.108696,POINT (12.29172 50.62779),6362.0
80056465,OBERHAUN,50.82597,9.726808,96.056075,23.146417,POINT (9.72681 50.82597),3600.0
80290288,STUTTGART-MUENSTER,48.821169,9.216168,62.13961,25.201299,POINT (9.21617 48.82117),4720.0
80836494,BERLIN-HALENSEE,52.49736,13.290256,16.374332,4.203209,POINT (13.29026 52.49736),6118.0
80263004,DEUERLING,49.041625,11.914906,55.357595,0.0,POINT (11.91491 49.04163),5850.0
80153247,LOEVENICH,50.943128,6.836559,23.372483,8.295302,POINT (6.83656 50.94313),2622.0
80201442,UEBERSEE,47.822687,12.487826,23.367698,22.37457,POINT (12.48783 47.82269),5703.0
80647222,SALMTAL,49.922636,6.840291,32.116667,0.473333,POINT (6.84029 49.92264),3010.0
80116889,EICHENBERG,51.375136,9.921927,69.777126,38.36217,POINT (9.92193 51.37514),6343.0
80224030,ELLINGEN (BAY),49.06742,10.961,30.732673,0.0,POINT (10.96100 49.06742),5320.0
80655365,WEINBOEHLA HALTEPUNKT,51.159178,13.561481,19.717314,2.54417,POINT (13.56148 51.15918),6363.0
80012930,BROKSTEDT,53.989878,9.823258,26.814332,21.508143,POINT (9.82326 53.98988),1220.0
80255083,DILLINGEN (SAAR) KATZENSCHWAENZ,49.369416,6.709944,23.563574,83.725086,POINT (6.70994 49.36942),3230.0
80373423,NEIDENFELS HP,49.387056,8.045642,32.980952,0.0,POINT (8.04564 49.38706),3280.0
80240796,ZIELITZ,52.299929,11.682358,23.313544,45.185529,POINT (11.68236 52.29993),6402.0
80334839,MUENSTER-HILTRUP,51.905186,7.654606,22.572549,1.380392,POINT (7.65461 51.90519),2931.0
80110023,LORCHHAUSEN,50.054542,7.78138,65.513699,8.537671,POINT (7.78138 50.05454),3507.0
80237321,HERFORD,52.119646,8.664016,39.351613,14.954839,POINT (8.66402 52.11965),2990.0
80226696,WUERZBURG-HEIDINGSFELD WEST,49.762984,9.942833,53.648915,34.238659,POINT (9.94283 49.76298),5321.0
80150870,HALLE (SAALE) HBF,51.474414,11.98577,28.119497,22.386792,POINT (11.98577 51.47441),6403.0
80228817,HOHE MARTER,49.424395,11.041582,88.018692,76.246106,POINT (11.04158 49.42439),5951.0
80210385,BOHMTE,52.361682,8.307821,35.113333,20.48,POINT (8.30782 52.36168),2200.0
80237230,DESSAU HBF,51.842215,12.23658,30.409018,39.347826,POINT (12.23658 51.84222),6856.0
80190355,BACHARACH,50.05747,7.7695,32.98,8.613333,POINT (7.76950 50.05747),3507.0
80253930,SAARBRUECKEN RBF,49.25465,7.002573,22.890395,216.437288,POINT (7.00257 49.25465),3511.0
80011916,DOLLERN,53.545504,9.557985,13.385714,0.0,POINT (9.55799 53.54550),1720.0
80032011,STADTFORST,52.4641,13.5701,17.215827,25.5,POINT (13.57010 52.46410),6153.0
80253583,WILTINGEN (SAAR),49.662792,6.5911,20.425455,5.472727,POINT (6.59110 49.66279),3230.0
80034462,LUCKENWALDE,52.09216,13.161655,13.190476,10.615873,POINT (13.16165 52.09216),6132.0
80017087,JESTEBURG,53.3135,9.979605,53.53605,99.868339,POINT (9.97960 53.31350),1280.0
80202366,MUENCHEN OST RBF,48.134919,11.630016,18.980545,668.326848,POINT (11.63002 48.13492),5555.0
80296376,BAD FRIEDRICHSHALL-JAGSTFELD,49.232203,9.20105,48.914062,361.96875,POINT (9.20105 49.23220),4900.0
80392522,DIEDELSHEIM,49.039224,8.67461,33.452229,0.0,POINT (8.67461 49.03922),4130.0
80012393,ROTENBURG(WUEMME),53.11368,9.39111,55.410658,59.617555,POINT (9.39111 53.11368),2200.0
80072157,JUEBEK,54.56034,9.404086,21.520147,17.728938,POINT (9.40409 54.56034),1040.0
80053884,MARBURG SUED,50.794604,8.762533,26.2607,3.081712,POINT (8.76253 50.79460),3900.0
80014308,FLENSBURG GRENZE,54.813177,9.36307,20.473881,0.0,POINT (9.36307 54.81318),1000.0
80100057,HAMM (WESTF) RBF O/W,51.667323,7.807048,27.703234,66.520105,POINT (7.80705 51.66732),2990.0
80146365,NIEDERLAHNSTEIN,50.316374,7.599383,69.998333,14.763333,POINT (7.59938 50.31637),3710.0
80144030,FREIBURG SUED,47.986899,7.80714,38.90566,22.650943,POINT (7.80714 47.98690),4312.0
80031658,BRIESEN(MARK),52.346693,14.280727,16.890909,9.84,POINT (14.28073 52.34669),6153.0
80066951,PONITZ,50.858042,12.417503,20.845528,0.857724,POINT (12.41750 50.85804),6362.0
80201103,FREILASSING,47.838206,12.97876,31.400662,596.31457,POINT (12.97876 47.83821),5740.0
80206052,MUENCHEN LANDSBERGER STRASSE,48.143954,11.50375,11.631148,2.491803,POINT (11.50375 48.14395),5540.0
80240291,WELLEN (B MAGDEBURG),52.135856,11.4348,48.278997,3.76489,POINT (11.43480 52.13586),6110.0
80062778,ROEDERAU BOGENDREIECK,51.3249,13.3171,32.722397,22.577287,POINT (13.31710 51.32490),6363.0
80101576,ESSEN ZOLLVEREIN NORD,51.494,7.047412,22.78777,4.223022,POINT (7.04741 51.49400),2650.0
80270561,SUBZIN-LIESSOW,53.87824,12.352157,15.237548,0.0,POINT (12.35216 53.87824),6325.0
80234716,ENGELSDORF (LEIPZIG),51.343383,12.467167,57.775424,429.577331,POINT (12.46717 51.34338),6369.0
80139279,WALDHEIM,52.3497,9.78379,125.022082,126.990536,POINT (9.78379 52.34970),1753.0
80227280,ANSBACH,49.29906,10.57935,78.934579,198.009346,POINT (10.57935 49.29906),5902.0
80193235,ROTTWEIL,48.16573,8.639558,12.742574,12.153465,POINT (8.63956 48.16573),4650.0
80227207,RAITERSAICH,49.375311,10.84449,27.951852,0.359259,POINT (10.84449 49.37531),5902.0
80241281,SCHOENEBECK (ELBE) GBF,52.026006,11.722245,34.477663,67.972509,POINT (11.72224 52.02601),6406.0
80141085,KLEINSTEINBACH,48.966593,8.554993,14.645833,0.0,POINT (8.55499 48.96659),4200.0
80100917,WITTEN HBF,51.43643,7.329374,38.0,29.202749,POINT (7.32937 51.43643),2801.0
80138313,HUDE,53.1117,8.45892,31.5,80.33209,POINT (8.45892 53.11170),1503.0
80115816,HAIGER,50.74273,8.221458,23.427928,4.738739,POINT (8.22146 50.74273),2800.0
80198267,GOTHA,50.940079,10.712684,27.061837,3.353357,POINT (10.71268 50.94008),6697.0
80201954,GROSSKAROLINENFELD,47.88967,12.084894,38.44586,0.0,POINT (12.08489 47.88967),5510.0
80081174,DUESSELDORF-BENRATH,51.162336,6.878907,13.62963,1.925926,POINT (6.87891 51.16234),2670.0
80229070,ESPENLOH,49.8633,9.818117,25.312775,3.885463,POINT (9.81812 49.86330),1733.0
80212795,LOEWENBERG (MARK),52.896801,13.190055,12.947826,3.752174,POINT (13.19005 52.89680),6752.0
80131128,DIEKHOLZEN,52.093785,9.886743,25.196347,4.347032,POINT (9.88674 52.09378),1733.0
80194027,HASSLOCH (PFALZ),49.372016,8.253437,34.808917,28.359873,POINT (8.25344 49.37202),3280.0
80254540,NEUNKIRCHEN (SAAR)-WELLESWEILER,49.349488,7.226936,26.251613,0.0,POINT (7.22694 49.34949),3282.0
80040097,LUBOLZ,51.962449,13.82131,20.717857,0.0,POINT (13.82131 51.96245),6142.0
80172775,LANGENPROZELTEN,50.061547,9.661939,38.774834,3.513245,POINT (9.66194 50.06155),5212.0
80144048,FREIBURG-ST GEORGEN,47.97647,7.80366,12.361842,0.0,POINT (7.80366 47.97647),4312.0
80190744,MAINZ KAISERBRUECKE,50.020417,8.249041,24.162069,7.8,POINT (8.24904 50.02042),3527.0
80718486,BOEHL-IGGELHEIM ABZW,49.38222,8.320089,34.151899,6.768987,POINT (8.32009 49.38222),3401.0
80034777,POTSDAM GRIEBNITZSEE,52.39465,13.12968,16.314286,3.97619,POINT (13.12968 52.39465),6118.0
80202275,MUENCHEN-JOHANNKIRCH,48.169072,11.64434,37.578595,161.391304,POINT (11.64434 48.16907),5560.0
80134544,HIMMIGHAUSEN,51.805827,8.995103,21.306011,18.486339,POINT (8.99510 51.80583),2980.0
80143248,ORSCHWEIER,48.275797,7.79111,49.825,28.940625,POINT (7.79111 48.27580),4000.0
80143321,KOLLMARSREUTE,48.09907,7.887097,50.071875,0.0125,POINT (7.88710 48.09907),4000.0
80143099,OFFENBURG,48.47685,7.947603,43.668427,21.915523,POINT (7.94760 48.47685),4263.0
80298034,KORNWESTHEIM KARLSHOEHE,48.8779,9.184604,14.143541,4.889952,POINT (9.18460 48.87790),4800.0
80075234,POTSDAM WILDPARK WEST,52.387047,12.982729,30.958333,18.817308,POINT (12.98273 52.38705),6116.0
80347245,GRUENBACH (UEST),49.591081,9.735472,15.423913,2.820652,POINT (9.73547 49.59108),4120.0
80135772,MINDEN (WESTFALEN),52.29188,8.93586,70.896875,153.121875,POINT (8.93586 52.29188),2990.0
80056390,GOETZENHOF,50.577832,9.715464,96.124611,53.598131,POINT (9.71546 50.57783),3600.0
80251413,QUINT,49.826027,6.70536,32.322368,4.236842,POINT (6.70536 49.82603),3010.0
80200378,TUESSLING,48.212565,12.590496,35.90991,81.454955,POINT (12.59050 48.21256),5725.0
80228825,HOEFLEIN,49.91762,10.87856,18.307692,8.546559,POINT (10.87856 49.91762),5103.0
80055350,HATTENBACH,50.822462,9.589535,28.211207,0.538793,POINT (9.58953 50.82246),1733.0
80190140,KOBLENZ-LUETZEL,50.368508,7.59231,73.386293,120.525441,POINT (7.59231 50.36851),3018.0
80159988,GESSERTSHAUSEN,48.3335,10.733611,27.367713,13.273543,POINT (10.73361 48.33350),5340.0
80111765,DETTINGEN (MAIN),50.043136,9.036841,28.653846,3.195804,POINT (9.03684 50.04314),3660.0
80144055,EBRINGEN,47.960279,7.76893,48.25625,0.0,POINT (7.76893 47.96028),4000.0
80157073,WEISSENBERG,51.22344,6.6765,24.498127,85.7603,POINT (6.67650 51.22344),2610.0
80850727,SCHWEINFURT MITTE,50.040182,10.228821,17.395652,0.0,POINT (10.22882 50.04018),5240.0
80054031,GUXHAGEN,51.2055,9.482423,31.681388,2.066246,POINT (9.48242 51.20550),6340.0
80137539,BREMEN-GROLLAND,53.083611,8.755088,16.725664,0.0,POINT (8.75509 53.08361),0.0
80131615,SUDHEIM,51.684626,9.971698,27.686957,6.765217,POINT (9.97170 51.68463),2975.0
80221291,HIRSCHAID,49.819586,10.991052,21.309645,8.563452,POINT (10.99105 49.81959),5900.0
80136275,SUDERBURG,52.905685,10.434095,66.31348,23.868339,POINT (10.43409 52.90568),1720.0
80101386,RECKLINGHAUSEN HBF,51.61693,7.20403,25.666667,14.289157,POINT (7.20403 51.61693),2224.0
80236810,GROSSLEHNA,51.304802,12.17001,27.150502,25.51505,POINT (12.17001 51.30480),6367.0
80282301,CHORIN HP,52.9038,13.87165,17.069565,0.0,POINT (13.87165 52.90380),6081.0
80105254,HORSTMAR,51.60935,7.543722,35.316327,10.676871,POINT (7.54372 51.60935),2901.0
80231373,KLEBITZ,51.9459,12.841985,11.517241,0.321839,POINT (12.84198 51.94590),6132.0
80211995,MARL LIPPE,51.711467,7.156958,26.556452,16.133065,POINT (7.15696 51.71147),2252.0
80142927,KEHL,48.577265,7.807214,17.291139,104.126582,POINT (7.80721 48.57726),4260.0
80011767,MASCHEN RBF S/N,53.408477,10.049637,75.422535,718.057903,POINT (10.04964 53.40848),1280.0
80235580,NEUKIERITZSCH,51.151697,12.414675,19.792035,22.358407,POINT (12.41468 51.15170),6385.0
80337733,BAD FRIEDRICHSHALL SALZWERK,49.222985,9.208706,30.5,62.394068,POINT (9.20871 49.22299),4900.0
80035337,BRIESELANG,52.583791,13.005334,18.894161,34.547445,POINT (13.00533 52.58379),6101.0
80155820,KOENIGSWINTER,50.678849,7.193255,82.980519,19.097403,POINT (7.19325 50.67885),2324.0
80124867,WARBURG (WESTF),51.49419,9.164024,27.444,44.456,POINT (9.16402 51.49419),2970.0
80319707,KOELN STEINSTRASSE (ABZW),50.898276,7.054289,39.886598,31.116838,POINT (7.05429 50.89828),2690.0
80194902,NEUWIED,50.432583,7.473939,88.181524,44.410049,POINT (7.47394 50.43258),3011.0
80190876,LUDWIGSHAFEN-RHEINGOENHEIM,49.4475,8.410438,37.205047,4.940063,POINT (8.41044 49.44750),3401.0
80110114,ELTVILLE,50.02871,8.122398,53.007286,14.233151,POINT (8.12240 50.02871),3507.0
80138255,DELMENHORST HEIDKRUG,53.057129,8.680194,24.938931,15.828244,POINT (8.68019 53.05713),1500.0
80108555,NEU-ISENBURG,50.053014,8.667235,29.260575,11.502538,POINT (8.66723 50.05301),3688.0
80235390,LEIPZIG-LINDENAU,51.333565,12.321648,17.689076,2.407563,POINT (12.32165 51.33357),6383.0
80845222,WERDAU BOGENDREIECK WERDAUER SPITZE,50.717209,12.375673,21.522267,1.497976,POINT (12.37567 50.71721),6362.0
80843110,GROSSBEEREN WEST,52.344265,13.271689,12.962733,2.347826,POINT (13.27169 52.34427),6132.0
80140848,KARLSRUHE WEST,49.004959,8.36205,28.040179,236.776786,POINT (8.36205 49.00496),4220.0
80262980,ETTERZHAUSEN,49.03173,11.97884,55.417722,0.0,POINT (11.97884 49.03173),5850.0
80273128,BREDDIN,52.886072,12.2258,16.003968,7.174603,POINT (12.22580 52.88607),6100.0
80115683,KATZENFURT,50.61733,8.34337,21.25,4.188679,POINT (8.34337 50.61733),2651.0
80226076,HOESBACH,49.999725,9.229004,40.734426,8.727869,POINT (9.22900 49.99972),5200.0
80160127,BAD KOESEN,51.132116,11.719607,32.714734,15.247649,POINT (11.71961 51.13212),6340.0
80290056,OETISHEIM,48.966327,8.813983,32.968254,0.0,POINT (8.81398 48.96633),4800.0
80101535,DUISBURG HUETTE K/M,51.379656,6.749814,13.531835,756.033708,POINT (6.74981 51.37966),2315.0
80340067,BREMERHAVEN-LEHE PBF,53.566335,8.600474,46.27619,214.169841,POINT (8.60047 53.56634),1740.0
80043273,HENNERSDORF,51.631,13.62983,13.810811,4.864865,POINT (13.62983 51.63100),6345.0
80135624,SEELZE,52.392295,9.613761,117.4875,720.791667,POINT (9.61376 52.39229),1750.0
80264465,AHRAIN,48.606396,12.257035,17.238938,15.287611,POINT (12.25704 48.60640),5634.0
80237255,DESSAU SUED,51.802196,12.236794,29.524272,9.650485,POINT (12.23679 51.80220),6411.0
80270488,LALENDORF OST,53.74686,12.3965,14.922179,1.568093,POINT (12.39650 53.74686),6447.0
80157065,NEUSS NORDKANAL,51.19242,6.67943,28.651865,9.403197,POINT (6.67943 51.19242),2610.0
80137786,STUBBEN,53.40742,8.78156,34.902208,46.511041,POINT (8.78156 53.40742),1740.0
80251009,HATZENPORT,50.226862,7.412106,32.646865,21.122112,POINT (7.41211 50.22686),3010.0
80070243,HAMBURG-HAUSBRUCH,53.471787,9.913482,71.221698,9.70283,POINT (9.91348 53.47179),1720.0
80226498,ZEIL KUEMMEL KIESWERKE,49.993575,10.637516,13.711656,0.0,POINT (10.63752 49.99357),5102.0
80139105,HASTEDT,53.067542,8.87612,17.008811,8.682819,POINT (8.87612 53.06754),1402.0
80240820,MAHLWINKEL,52.39466,11.789575,23.859712,0.0,POINT (11.78957 52.39466),6402.0
80225433,THUENGERSHEIM,49.87916,9.84145,97.554517,17.629283,POINT (9.84145 49.87916),5200.0
80111799,MAINTAL OST,50.14346,8.836174,46.18612,17.9653,POINT (8.83617 50.14346),3660.0
80618785,HAMBURG-BARMBEK GLEICHRICHTERWERK,53.568221,10.06081,29.392405,0.0,POINT (10.06081 53.56822),1242.0
80918748,SAARBRUECKEN-BURBACH MITTE,49.243638,6.945185,30.594937,0.0,POINT (6.94519 49.24364),3260.0
80165043,BERGA-KELBRA,51.452495,11.0186,14.985849,25.212264,POINT (11.01860 51.45249),6722.0
80253856,SAARBRUECKEN-BURBACH,49.243,6.952831,31.84127,12.907937,POINT (6.95283 49.24300),3260.0
80117192,FASSDORF,50.9496,9.82086,44.908497,9.326797,POINT (9.82086 50.94960),3801.0
80081802,HAAN,51.1896,6.997937,20.982301,1.818584,POINT (6.99794 51.18960),2730.0
80111856,BRUCHKOEBEL,50.186244,8.92029,22.73991,8.896861,POINT (8.92029 50.18624),3742.0
80021436,KISSING,48.31018,10.95953,44.322884,24.489028,POINT (10.95953 48.31018),5581.0
80100362,CASTROP-RAUXEL HBF,51.573682,7.3054,24.482759,17.332288,POINT (7.30540 51.57368),2650.0
80151993,AACHEN WEST,50.781398,6.07133,26.973298,452.571429,POINT (6.07133 50.78140),2553.0
80136101,OELDE,51.829214,8.143011,42.121795,10.070513,POINT (8.14301 51.82921),2990.0
80264887,VILSHOFEN(NIEDERBAY),48.631011,13.187312,41.811912,68.021944,POINT (13.18731 48.63101),5833.0
80137364,ROHRSEN (B NIENBURG),52.69776,9.233269,65.056426,44.605016,POINT (9.23327 52.69776),1740.0
80855056,WESTERSTETTEN HP,48.520094,9.949411,34.851211,4.384083,POINT (9.94941 48.52009),4700.0
80112649,BUERSTADT (HP),49.64513,8.46016,58.33574,5.65704,POINT (8.46016 49.64513),4010.0
80020834,NEUOFFINGEN,48.484481,10.346344,30.937984,33.244186,POINT (10.34634 48.48448),5381.0
80034876,SCHWIELOWSEE,52.341694,12.98125,16.897638,0.0,POINT (12.98125 52.34169),6115.0
80844118,BOHNSDORF SUED,52.388403,13.60403,18.097122,2.769784,POINT (13.60403 52.38840),6519.0
80151894,UEBACH-PALENBERG,50.924309,6.097261,12.820106,3.968254,POINT (6.09726 50.92431),2550.0
80240150,KADE,52.395,12.266515,17.583969,0.530534,POINT (12.26652 52.39500),6110.0
80160150,BAD SULZA,51.09623,11.6362,28.259649,2.807018,POINT (11.63620 51.09623),6340.0
80190231,KOBLENZ HBF,50.352811,7.58935,47.975,56.53125,POINT (7.58935 50.35281),3011.0
80102863,PRAEST,51.822902,6.34392,31.923345,27.149826,POINT (6.34392 51.82290),2270.0
80035014,POTSDAM-REHBRUECKE,52.358886,13.098812,15.448649,2.881081,POINT (13.09881 52.35889),6118.0
80081232,HILDEN,51.167857,6.922941,67.467105,21.148026,POINT (6.92294 51.16786),2676.0
80260489,MARTINLAMITZ,50.217536,11.951907,15.880952,0.0,POINT (11.95191 50.21754),5050.0
80105353,OBERHAUSEN MATHILDE,51.4772,6.830324,99.928125,58.16875,POINT (6.83032 51.47720),2331.0
80297614,KIRCHHEIM (UNTERFR),49.656852,9.85804,15.586957,0.0,POINT (9.85804 49.65685),4120.0
80062299,WEISSIG (B GROSSENHAIN),51.28944,13.421954,27.870253,21.787975,POINT (13.42195 51.28944),6363.0
80167312,MAMMENDORF,48.213782,11.170674,44.159875,23.69279,POINT (11.17067 48.21378),5581.0
80012351,TOSTEDT,53.272005,9.73113,55.398119,24.912226,POINT (9.73113 53.27201),2200.0
80101162,BOCHUM-RIEMKE HP,51.518227,7.20568,56.402516,10.644654,POINT (7.20568 51.51823),2153.0
80021014,MINDELALTHEIM,48.4562,10.407914,26.864865,2.481982,POINT (10.40791 48.45620),5302.0
80108498,FRANKFURT-NIEDERRAD,50.081629,8.637896,20.725564,12.067669,POINT (8.63790 50.08163),3683.0
80048256,RAGOW UMSPANNWERK,51.88361,13.915949,20.683274,0.0,POINT (13.91595 51.88361),6142.0
80133892,GREVENBROICH,51.093279,6.58046,20.28125,6.424107,POINT (6.58046 51.09328),2611.0
80225292,DETTELBACH BAHNHOF,49.790525,10.090466,50.318033,35.22623,POINT (10.09047 49.79053),5910.0
80294066,OBERNDORF (NECKAR),48.295493,8.576591,12.735751,8.839378,POINT (8.57659 48.29549),4600.0
80190827,LUDWIGSHAFEN(RH) HBF,49.477814,8.431926,39.379498,61.471647,POINT (8.43193 49.47781),3522.0
80074500,HAMBURG-WILHELMSBURG,53.49909,10.006313,29.094915,20.640678,POINT (10.00631 53.49909),1255.0
80232579,JESSEN (ELSTER),51.794763,12.9561,17.985075,27.473881,POINT (12.95610 51.79476),6207.0
80240838,TANGERHUETTE,52.437574,11.811889,24.118705,17.093525,POINT (11.81189 52.43757),6402.0
80020867,UNTERFAHLHEIM,48.43428,10.160967,30.755814,24.422481,POINT (10.16097 48.43428),5302.0
80151225,VIERSEN,51.255499,6.405954,33.393043,59.834783,POINT (6.40595 51.25550),2520.0
80204974,MUENCHEN-MOOSACH,48.181304,11.507159,20.156794,41.0,POINT (11.50716 48.18130),5569.0
80115758,BREMERHAVEN-WULSDORF,53.5079,8.611169,35.507886,92.277603,POINT (8.61117 53.50790),1740.0
80010660,HAMBURG-BILLW UBF,53.50725,10.11755,35.454861,384.085069,POINT (10.11755 53.50725),6100.0
80263343,EGGMUEHL,48.83745,12.18215,20.932735,25.004484,POINT (12.18215 48.83745),5500.0
80153213,KOELN-EHRENFELD,50.952014,6.919178,41.714286,41.600907,POINT (6.91918 50.95201),2622.0
80113118,WEINHEIM(BERGSTR),49.554965,8.66654,56.634069,45.690852,POINT (8.66654 49.55497),4104.0
80102681,OBERHAUSEN-HOLTEN,51.534596,6.810356,35.707317,4.407666,POINT (6.81036 51.53460),2270.0
80229005,MOTTGERS,50.273865,9.65469,25.868996,11.80786,POINT (9.65469 50.27387),3825.0
80088138,WUSTERMARK,52.551872,12.93977,14.385638,16.281915,POINT (12.93977 52.55187),6185.0
80305888,HAMBURG-WILHELMSBURG ABZW,53.502926,10.003388,106.375,23.95,POINT (10.00339 53.50293),1255.0
80056242,BOSSERODE,50.94664,9.993377,32.801394,1.648084,POINT (9.99338 50.94664),6340.0
80201798,OBERAUDORF,47.65265,12.175256,20.223642,0.0,POINT (12.17526 47.65265),5702.0
80062471,WEINBOEHLA,51.167496,13.5708,12.248175,14.145985,POINT (13.57080 51.16750),6248.0
80209577,FUERSTENBERG (HAVEL),53.186781,13.140184,12.769565,5.86087,POINT (13.14018 53.18678),6088.0
80034439,TREBBIN,52.21778,13.231182,13.971591,16.755682,POINT (13.23118 52.21778),6132.0
80290072,ILLINGEN (WUERTT),48.9565,8.920157,46.642405,13.316456,POINT (8.92016 48.95650),4800.0
80133157,BENHAUSEN,51.7293,8.80765,18.476415,15.669811,POINT (8.80765 51.72930),1760.0
80055269,KASSEL KEILSBERG,51.265747,9.457299,28.214592,4.2103,POINT (9.45730 51.26575),3900.0
80623835,SCHWERIN MITTE,53.626942,11.405352,15.293333,0.0,POINT (11.40535 53.62694),6441.0
80034710,SAARMUND,52.323805,13.139676,40.481848,57.052805,POINT (13.13968 52.32381),6117.0
80240911,GOLDBECK (KR OSTERBURG),52.716574,11.858185,13.68,0.0,POINT (11.85819 52.71657),6401.0
80145581,SINGEN(HOHENTWIEL)BF,47.75762,8.842665,18.309735,168.265487,POINT (8.84267 47.75762),4250.0
80103366,BOCHUM STOCKUMER STRASSE,51.4708,7.33137,35.109215,15.037543,POINT (7.33137 51.47080),2158.0
80114744,DILLBRECHT,50.80359,8.203522,21.716981,0.0,POINT (8.20352 50.80359),2800.0
80146837,MANNHEIM RENNPLATZ,49.48669,8.53069,50.019672,37.154098,POINT (8.53069 49.48669),0.0
80105064,MARL-HUELS,51.669541,7.11657,11.962617,8.775701,POINT (7.11657 51.66954),2252.0
80053785,SCHLIERBACH (KR SCHWALM-EDER),50.968632,9.20215,24.724409,1.830709,POINT (9.20215 50.96863),3900.0
80112086,KELSTERBACH,50.061684,8.53013,15.954386,34.333333,POINT (8.53013 50.06168),3683.0
80263053,SEUBERSDORF,49.168153,11.628811,55.411392,22.417722,POINT (11.62881 49.16815),5850.0
80143180,FRIESENHEIM (BADEN),48.38249,7.8639,52.54232,15.423197,POINT (7.86390 48.38249),4000.0
80103010,DUISBURG-WEDAU,51.400781,6.80407,57.370968,76.510081,POINT (6.80407 51.40078),2324.0
80210419,DIEPHOLZ,52.605646,8.380568,34.49,55.08,POINT (8.38057 52.60565),2200.0
80225953,JOSSA,50.235749,9.600196,71.286604,45.928349,POINT (9.60020 50.23575),3825.0
80100099,BERGKAMEN,51.635116,7.649245,36.380471,15.175084,POINT (7.64924 51.63512),2250.0
80035154,PRIORT,52.517514,12.97288,37.385159,274.106007,POINT (12.97288 52.51751),6105.0
80241349,CALBE (SAALE) OST,51.92182,11.812132,30.809859,23.732394,POINT (11.81213 51.92182),6854.0
80136168,AHLEN (WESTF),51.762477,7.89618,41.618243,6.978041,POINT (7.89618 51.76248),2990.0
80234724,ENGELSDORF OST,51.343811,12.485239,25.650485,32.902913,POINT (12.48524 51.34381),6369.0
80211755,KIRCHLENGERN,52.19814,8.64481,36.182796,36.65233,POINT (8.64481 52.19814),2992.0
80190447,BINGEN-GAULSHEIM,49.967066,7.95187,32.966667,1.843333,POINT (7.95187 49.96707),3569.0
80195057,BRAUBACH,50.27534,7.643686,65.681507,0.0,POINT (7.64369 50.27534),3507.0
80163246,ORLAMUENDE,50.77684,11.5461,19.550336,7.751678,POINT (11.54610 50.77684),6684.0
80221838,ELTERSDORF,49.55375,10.996382,25.872,10.304,POINT (10.99638 49.55375),5919.0
80141556,KOELN SUED,50.928914,6.939485,82.053292,76.877743,POINT (6.93949 50.92891),2643.0
80261875,IRRENLOHE,49.363417,12.102789,13.60199,25.577114,POINT (12.10279 49.36342),5904.0
80180695,GROETZINGEN,49.006047,8.492701,15.0,1.606218,POINT (8.49270 49.00605),4201.0
80313684,PORTA WESTFALICA HP,52.24263,8.920305,23.954023,0.0,POINT (8.92031 52.24263),2990.0
80240135,GENTHIN,52.4032,12.1574,18.619048,5.673993,POINT (12.15740 52.40320),6110.0
80273177,WITTENBERGE,53.006969,11.762324,24.34687,26.446701,POINT (11.76232 53.00697),6941.0
80031666,JACOBSDORF (MARK),52.332678,14.3541,16.871795,0.0,POINT (14.35410 52.33268),6153.0
80190074,BROHL,50.481434,7.332671,37.742857,18.2,POINT (7.33267 50.48143),2630.0
80235606,DEUTZEN,51.114468,12.4211,12.105691,19.934959,POINT (12.42110 51.11447),6362.0
80054452,BAD SOODEN-ALLENDORF,51.26955,9.96978,47.134868,9.848684,POINT (9.96978 51.26955),3600.0
80194936,ENGERS,50.427515,7.546295,58.028986,9.387681,POINT (7.54629 50.42751),2324.0
80290775,SUESSEN,48.684713,9.76022,35.774306,30.40625,POINT (9.76022 48.68471),4700.0
80066357,GLAUCHAU(SACHS),50.830404,12.542725,13.832512,109.172414,POINT (12.54273 50.83040),6258.0
80241307,SCHOENEBECK-FROHSE,52.036,11.706789,13.076923,0.669231,POINT (11.70679 52.03600),6406.0
80012856,PRISDORF,53.67674,9.76167,35.592476,0.0,POINT (9.76167 53.67674),1220.0
80135038,SARSTEDT,52.23333,9.8433,74.4081,16.616822,POINT (9.84330 52.23333),1733.0
80255091,DILLINGEN (SAAR) HUETTENWERKE,49.353015,6.745419,13.569697,118.869697,POINT (6.74542 49.35301),3217.0
80056069,BEBRA,50.968597,9.798937,46.324086,246.160782,POINT (9.79894 50.96860),6340.0
80140483,MANNHEIM-NECKARAU,49.45661,8.49434,25.717647,79.898039,POINT (8.49434 49.45661),4002.0
80200717,HOERLKOFEN,48.243069,11.943083,17.586957,21.03913,POINT (11.94308 48.24307),5600.0
80203448,MUENCHEN-LAIM RBF,48.146324,11.499512,45.454545,91.308777,POINT (11.49951 48.14632),5545.0
80112326,MAINZ-GUSTAVSBURG,49.994215,8.31514,22.692913,13.370079,POINT (8.31514 49.99421),3538.0
80012849,PINNEBERG,53.655529,9.796773,35.761755,31.473354,POINT (9.79677 53.65553),1225.0
80392894,MEPPEN RWE,52.756583,7.289242,29.071698,0.0,POINT (7.28924 52.75658),2931.0
80111526,FRANKFURT-GINNHEIM,50.14524,8.644341,20.369565,1.434783,POINT (8.64434 50.14524),3900.0
80148445,ALTENBURG,50.996912,12.443992,19.254237,22.817797,POINT (12.44399 50.99691),6362.0
80151118,RHEINHAUSEN,51.39518,6.70482,32.767123,242.839041,POINT (6.70482 51.39518),2505.0
80145623,MANNHEIM-HANDELSHAFEN,49.492626,8.453926,14.808642,0.0,POINT (8.45393 49.49263),4032.0
80040162,KUNERSDORF,51.769398,14.189032,12.810458,0.0,POINT (14.18903 51.76940),6142.0
80290148,BIETIGHEIM-BISSINGEN,48.949048,9.13856,75.371069,115.09434,POINT (9.13856 48.94905),4800.0
80211672,WISSINGEN,52.260125,8.20436,34.355311,15.556777,POINT (8.20436 52.26013),2992.0
80237172,RODLEBEN,51.899903,12.21036,28.477987,58.632075,POINT (12.21036 51.89990),6411.0
80205179,MUENCHEN-RIEM UBF,48.144747,11.693961,17.384615,439.5,POINT (11.69396 48.14475),5612.0
80140038,MANNHEIM-WALDHOF,49.52672,8.483765,58.426396,80.282572,POINT (8.48377 49.52672),4011.0
80213694,SCHWAAN,53.93919,12.118028,12.564767,4.031088,POINT (12.11803 53.93919),6446.0
80163402,PROBSTZELLA,50.529984,11.38393,39.425287,140.390805,POINT (11.38393 50.52998),6383.0
80140830,KARLSRUHE-MUEHLBURG,49.0146,8.351264,20.054545,0.0,POINT (8.35126 49.01460),4220.0
80294991,EUTINGEN (BADEN),48.909863,8.743786,14.46875,0.0,POINT (8.74379 48.90986),4200.0
80043166,LAUTA (NIEDERLAUSITZ),51.44845,14.09277,19.699074,1.953704,POINT (14.09277 51.44845),6207.0
80142828,OTTERSWEIER,48.678885,8.112286,61.240625,14.171875,POINT (8.11229 48.67889),4280.0
80200436,BURGHAUSEN WACKERWERK,48.184787,12.829823,20.958848,219.115226,POINT (12.82982 48.18479),5726.0
80138362,BERNE,53.184298,8.475853,18.344538,18.806723,POINT (8.47585 53.18430),1503.0
80383893,BRETTEN-RUIT,49.008647,8.722345,33.526984,0.0,POINT (8.72235 49.00865),4800.0
80210625,EMSDETTEN,52.177216,7.531294,12.753521,6.816901,POINT (7.53129 52.17722),2931.0
80081299,LINTORF (NIEDERRHEIN),51.336169,6.827067,79.457413,17.940063,POINT (6.82707 51.33617),2324.0
80140616,SCHWETZINGEN,49.385015,8.578785,87.2,116.403125,POINT (8.57878 49.38502),4060.0
80190868,LUDWIGSHAFEN-MUNDENHEIM,49.462125,8.421598,37.0,41.261006,POINT (8.42160 49.46213),3403.0
80227272,SACHSEN (B ANSBACH),49.293582,10.661548,27.640449,0.0,POINT (10.66155 49.29358),5902.0
80200352,MUEHLDORF (OBERBAY),48.249039,12.52071,46.013652,536.969283,POINT (12.52071 48.24904),5723.0
80043232,BEUTERSITZ,51.591358,13.362088,11.266667,5.066667,POINT (13.36209 51.59136),6345.0
80202267,MUENCHEN-ENGLSCHALKING,48.157354,11.648293,32.583893,0.0,POINT (11.64829 48.15735),5560.0
80609966,GELSENKIRCHEN-BUER NORD HP,51.587023,7.050336,11.655172,0.551724,POINT (7.05034 51.58702),2252.0
80153031,HOHENWULSCH,52.667287,11.5955,11.47619,15.984127,POINT (11.59550 52.66729),6899.0
80154831,SECHTEM,50.795427,6.95848,36.318471,14.815287,POINT (6.95848 50.79543),2630.0
80337667,BAD FRIEDRICHSHALL AUDI,49.2195,9.21272,14.857868,34.822335,POINT (9.21272 49.21950),4900.0
80195040,OBERLAHNSTEIN,50.298686,7.60475,66.7022,36.903553,POINT (7.60475 50.29869),3507.0
80021121,KUTZENHAUSEN,48.334778,10.695857,27.179372,0.0,POINT (10.69586 48.33478),5302.0
80151290,BREYELL,51.294749,6.241703,25.158301,15.498069,POINT (6.24170 51.29475),2510.0
80226688,WUERZBURG SUED,49.788494,9.94514,76.1125,0.0,POINT (9.94514 49.78849),5321.0
80102988,BABENHAUSEN (HESS),49.95889,8.95793,43.810345,12.217241,POINT (8.95793 49.95889),4113.0
80224857,FUERTH-BURGFARRNBACH,49.491062,10.923973,47.433775,6.066225,POINT (10.92397 49.49106),5910.0
80290569,OBERESSLINGEN,48.729948,9.327033,12.0,0.0,POINT (9.32703 48.72995),4701.0
80143891,LINZ (RHEIN),50.569345,7.276794,85.690323,22.064516,POINT (7.27679 50.56934),3033.0
80105205,HERNE ROTTBRUCH HGN,51.5438,7.198,28.94702,11.549669,POINT (7.19800 51.54380),2650.0
80324699,NUETTERMOOR,53.278706,7.455091,31.516854,0.0,POINT (7.45509 53.27871),2931.0
80241240,MAGDEBURG-BUCKAU,52.110882,11.63162,26.305036,28.663309,POINT (11.63162 52.11088),6406.0
80034074,BORKHEIDE,52.232318,12.85657,16.957692,6.869231,POINT (12.85657 52.23232),6118.0
80112078,RAUNHEIM,50.010411,8.45516,15.77551,3.506803,POINT (8.45516 50.01041),3520.0
80210948,OLDERSUM,53.331923,7.338686,31.692884,14.651685,POINT (7.33869 53.33192),2931.0
80130021,LEIFERDE (B GIFHORN) UEST,52.456477,10.43799,27.167832,1.468531,POINT (10.43799 52.45648),6107.0
80184044,DUDWEILER,49.277722,7.027685,31.133956,109.557632,POINT (7.02768 49.27772),3511.0
80152397,HOCHNEUKIRCH,51.103303,6.466409,19.632287,4.273543,POINT (6.46641 51.10330),2611.0
80210310,OSNABRUECK ALTSTADT,52.280894,8.045935,56.007168,0.0,POINT (8.04594 52.28089),2992.0
80011783,RADBRUCH,53.317324,10.291244,72.85625,0.0,POINT (10.29124 53.31732),1720.0
80223115,REICHENSCHWAND,49.514971,11.373436,15.18593,0.0,POINT (11.37344 49.51497),5903.0
80063776,CHEMNITZ HBF,50.8385,12.93135,11.333333,19.428571,POINT (12.93135 50.83850),6645.0
80156406,MAGDEBURG SUEDOST,52.070522,11.669632,31.594982,8.476703,POINT (11.66963 52.07052),6406.0
80315010,HOF HBF STADT 2,50.341635,11.9116,10.413043,0.0,POINT (11.91160 50.34163),6362.0
80040048,TEUPITZ-GROSS KOERIS,52.159931,13.650832,20.691756,0.0,POINT (13.65083 52.15993),6142.0
80053553,SPEELE,51.3785,9.56504,32.174757,7.812298,POINT (9.56504 51.37850),1732.0
80153080,DORMAGEN,51.099056,6.816181,37.424749,105.160535,POINT (6.81618 51.09906),2610.0
80265025,SANDBACH (NIEDERBAY),48.605068,13.267173,39.528302,10.710692,POINT (13.26717 48.60507),5830.0
80295188,STETTEN-BEINSTEIN,48.812213,9.35299,11.043478,0.0,POINT (9.35299 48.81221),4710.0
80060061,BAD SCHANDAU,50.920741,14.140974,22.96463,37.434084,POINT (14.14097 50.92074),6240.0
80056416,MARBACH (KR FULDA),50.618857,9.733879,96.071651,35.383178,POINT (9.73388 50.61886),3600.0
80190108,NAMEDY,50.457695,7.362571,17.713793,16.055172,POINT (7.36257 50.45770),2630.0
80021147,DIEDORF(SCHWAB),48.356486,10.7782,27.26009,0.0,POINT (10.77820 48.35649),5302.0
80241158,ZERBST,51.955785,12.089874,28.286164,11.355346,POINT (12.08987 51.95578),6411.0
80211839,DROHNE,52.41937,8.32771,34.003333,3.69,POINT (8.32771 52.41937),2200.0
80145540,ENGEN,47.856352,8.772851,12.955665,11.561576,POINT (8.77285 47.85635),4250.0
80093559,DUISBURG-MEIDERICH SUED,51.468797,6.780011,24.509506,10.022814,POINT (6.78001 51.46880),2331.0
80115667,WERDORF,50.59403,8.41817,21.414286,2.190476,POINT (8.41817 50.59403),2651.0
80034959,SEDDIN SUED,52.291516,12.994251,15.236133,56.949287,POINT (12.99425 52.29152),6124.0
80140913,HEIDELSHEIM,49.102552,8.64949,33.354633,0.0,POINT (8.64949 49.10255),4130.0
80210971,EMDEN,53.370322,7.19574,28.873181,156.257796,POINT (7.19574 53.37032),1576.0
80110130,WIESBADEN-SCHIERSTEIN,50.047576,8.19551,65.501706,9.948805,POINT (8.19551 50.04758),3507.0
80263012,LAABER,49.07001,11.884353,55.35443,0.0,POINT (11.88435 49.07001),5850.0
80254623,KIRKEL,49.286245,7.22738,10.933333,0.0,POINT (7.22738 49.28625),3250.0
80231670,WOLFEN (KR BITTERFELD),51.662033,12.279515,29.648387,29.603226,POINT (12.27951 51.66203),6411.0
80204495,PAINDORF,48.44401,11.48917,32.768987,0.0,POINT (11.48917 48.44401),5501.0
80113431,DIEBURG,49.90474,8.840892,46.384083,30.951557,POINT (8.84089 49.90474),3661.0
80053587,NIEDERVELLMAR,51.3521,9.477314,34.095082,23.747541,POINT (9.47731 51.35210),3918.0
80211573,SCHUETTORF,52.31825,7.22141,17.197425,6.27897,POINT (7.22141 52.31825),2026.0
80155523,MAGDEBURG HBF,52.130578,11.627329,38.247159,47.150568,POINT (11.62733 52.13058),6434.0
80088682,DRESDEN-COTTA,51.053544,13.678418,29.124183,7.30719,POINT (13.67842 51.05354),6272.0
80294082,EPFENDORF,48.250448,8.599449,12.666667,6.875,POINT (8.59945 48.25045),4600.0
80034975,MICHENDORF,52.315723,13.029488,60.565625,61.121875,POINT (13.02949 52.31572),6122.0
80031799,ZILTENDORF,52.199926,14.617054,14.131579,31.877193,POINT (14.61705 52.19993),6153.0
80105155,GERSCHEDE,51.5016,6.94111,62.047319,19.798107,POINT (6.94111 51.50160),2253.0
80066407,ZWICKAU (SACHS) HBF,50.714785,12.4646,14.649485,44.047423,POINT (12.46460 50.71478),6275.0
80185371,SAARBRUECKEN SAARDAMM,49.237543,6.962435,18.831683,459.577558,POINT (6.96244 49.23754),3231.0
80254664,SCHEIDT (SAAR),49.24506,7.05787,11.1,0.0,POINT (7.05787 49.24506),3250.0
80034827,WERDER(HAVEL),52.392944,12.926521,25.849673,26.699346,POINT (12.92652 52.39294),6110.0
80232496,LUTHERSTADT WITTENBERG-PIESTERITZ,51.874121,12.5786,18.144898,104.579592,POINT (12.57860 51.87412),6207.0
80051714,LIEBENAU (BZ KASSEL),51.491841,9.273958,27.24,6.54,POINT (9.27396 51.49184),2550.0
80151068,TROMPET,51.414763,6.669386,26.314607,25.932584,POINT (6.66939 51.41476),2340.0
80106922,BAUNATAL-GUNTERSHAUSEN,51.230862,9.467151,54.761006,29.883648,POINT (9.46715 51.23086),6340.0
80055277,DOERNHAGEN SCHWARZENBACH,51.21392,9.489091,28.306034,2.491379,POINT (9.48909 51.21392),1733.0
80138024,BREMERHAVEN-SPECKENBUETTEL,53.5908,8.58057,38.608833,678.709779,POINT (8.58057 53.59080),1740.0
80194845,LEUBSDORF (RHEIN),50.547642,7.286497,85.067961,5.249191,POINT (7.28650 50.54764),2324.0
80207282,NEUDIETENDORF,50.914276,10.910555,26.637324,12.440141,POINT (10.91056 50.91428),6298.0
80066373,MOSEL,50.78094,12.477982,17.48,37.977778,POINT (12.47798 50.78094),6258.0
80227496,GUNZENHAUSEN,49.122,10.75672,51.3125,43.55625,POINT (10.75672 49.12200),5330.0
80040196,COTTBUS,51.752624,14.325639,25.096118,519.621072,POINT (14.32564 51.75262),6345.0
80137471,BREMEN-MAHNDORF,53.040228,8.948359,49.821317,28.438871,POINT (8.94836 53.04023),1740.0
80140665,WAGHAEUSEL,49.2497,8.50962,76.028125,38.56875,POINT (8.50962 49.24970),4080.0
80053793,TREYSA,50.9111,9.18693,24.764706,7.580392,POINT (9.18693 50.91110),3900.0
80160762,EISENACH-STEDTFELD,50.984769,10.269373,32.867347,20.472789,POINT (10.26937 50.98477),6340.0
80210252,OSNABRUECK HBF,52.272567,8.061188,36.875856,138.800514,POINT (8.06119 52.27257),2992.0
80020669,GABLINGEN,48.463418,10.851112,48.838006,55.557632,POINT (10.85111 48.46342),5300.0
80273052,FRIESACK (MARK),52.760634,12.587618,16.72332,3.071146,POINT (12.58762 52.76063),6100.0
80010694,HAMBURG-ROTHENBURGSORT,53.537306,10.051834,87.553892,90.622754,POINT (10.05183 53.53731),6100.0
80181347,KARLSRUHE-KNIELINGEN,49.0267,8.341329,20.099099,4.846847,POINT (8.34133 49.02670),3443.0
80132472,GROSS GLEIDINGEN,52.231957,10.430083,73.676563,49.935938,POINT (10.43008 52.23196),1922.0
80194852,BAD HOENNINGEN,50.51481,7.311524,86.391586,25.482201,POINT (7.31152 50.51481),2324.0
80211680,WESTERHAUSEN (KR MELLE),52.236323,8.27958,34.442029,0.0,POINT (8.27958 52.23632),2992.0
80105767,DARMSTADT-EBERSTADT,49.816103,8.627182,58.195584,9.498423,POINT (8.62718 49.81610),3601.0
80200386,HEILIGENSTATT,48.214653,12.609447,26.657692,0.0,POINT (12.60945 48.21465),5725.0
80225904,ROETHENBACH-STEINBERG,49.48443,11.24746,11.272727,0.0,POINT (11.24746 49.48443),5904.0
80196212,VAIHINGEN (ENZ),48.947902,8.959384,57.357595,34.892405,POINT (8.95938 48.94790),4842.0
80135210,HANNOVER-BORNUM,52.35172,9.68076,15.0,0.0,POINT (9.68076 52.35172),1760.0
80692921,BRUCHSAL FEUERWEHRSCHULE,49.138764,8.574694,14.920168,0.0,POINT (8.57469 49.13876),4132.0
80140681,GRABEN-NEUDORF,49.161448,8.491078,80.534375,75.925,POINT (8.49108 49.16145),4082.0
80042028,SPREEWITZ SUED,51.47017,14.410017,17.848039,6.004902,POINT (14.41002 51.47017),6222.0
80100388,HERNE,51.542128,7.211104,24.710485,19.223787,POINT (7.21110 51.54213),2650.0
80135699,HASTE,52.38066,9.38956,66.925,25.053125,POINT (9.38956 52.38066),1761.0
80251421,EHRANG,49.803155,6.686507,20.316726,233.905694,POINT (6.68651 49.80315),3010.0
80237289,JEBER-BERGFRIEDEN,51.986584,12.3513,15.90535,4.320988,POINT (12.35130 51.98658),6414.0
80103622,SALZKOTTEN,51.673161,8.600695,21.857741,8.648536,POINT (8.60069 51.67316),1760.0
80163337,RUDOLSTADT(THUER),50.717999,11.339162,19.100313,9.924765,POINT (11.33916 50.71800),6305.0
80112482,BIEBESHEIM,49.781939,8.474018,62.715625,43.259375,POINT (8.47402 49.78194),4010.0
80833038,GENDORF,48.177649,12.720335,22.452756,0.0,POINT (12.72034 48.17765),5725.0
80151852,BAAL GBF,51.035821,6.278556,12.736842,22.536842,POINT (6.27856 51.03582),2550.0
80899401,AHRENSBURG-GARTENHOLZ,53.689032,10.251914,13.780822,0.0,POINT (10.25191 53.68903),1120.0
80200451,BURGHAUSEN,48.174675,12.829799,22.044534,12.093117,POINT (12.82980 48.17468),5726.0
80695403,FRIEDRICHSTHAL (SAAR) MITTE,49.327135,7.094111,30.487421,2.720126,POINT (7.09411 49.32713),3511.0
80110155,WIESBADEN OST,50.040807,8.2575,53.919453,35.012158,POINT (8.25750 50.04081),3603.0
80294546,MAICHINGEN,48.7218,8.969533,11.753846,0.0,POINT (8.96953 48.72180),4870.0
80253559,SERRIG,49.577701,6.570685,20.543796,5.99635,POINT (6.57069 49.57770),3230.0
80225995,RIENECK,50.091158,9.664667,72.401869,0.0,POINT (9.66467 50.09116),3825.0
80164715,ETZLEBEN,51.26032,11.181111,11.0,21.111111,POINT (11.18111 51.26032),6300.0
80143263,HERBOLZHEIM (BREISGAU),48.2251,7.768665,50.11875,20.85625,POINT (7.76867 48.22510),4000.0
80100438,GELSENKIRCHEN-BISMARCK,51.537497,7.107576,55.272436,194.105769,POINT (7.10758 51.53750),2153.0
80142281,KARLSRUHE HBF,48.99454,8.4029,14.447368,23.859649,POINT (8.40290 48.99454),4214.0
80137604,BREMEN RBF,53.127157,8.76643,37.781283,204.080967,POINT (8.76643 53.12716),1740.0
80637918,HAGEN RWE,51.401785,7.457184,31.428044,3.520295,POINT (7.45718 51.40178),2823.0
80204917,LOHHOF,48.286627,11.578758,16.857143,2.956044,POINT (11.57876 48.28663),5500.0
80210815,LATHEN,52.860729,7.322507,29.520913,12.441065,POINT (7.32251 52.86073),2931.0
80155481,LEUNA WERKE SUED,51.306553,12.006587,44.735294,7.346405,POINT (12.00659 51.30655),6340.0
80160820,HERLESHAUSEN,51.00387,10.17197,29.857639,1.378472,POINT (10.17197 51.00387),6340.0
80232355,FALKENBERG (ELSTER),51.583342,13.24632,14.537859,47.169713,POINT (13.24632 51.58334),6845.0
80245357,HAMBURG-ALLERMOEHE,53.490834,10.153649,23.689769,6.867987,POINT (10.15365 53.49083),6100.0
80135848,VENNEBECK,52.221315,8.87286,50.244373,10.864952,POINT (8.87286 52.22131),2990.0
80346114,BONN-BAD GODESBERG NORD,50.694985,7.141842,36.031746,16.787302,POINT (7.14184 50.69499),2630.0
80066944,GOESSNITZ,50.89419,12.430969,21.733871,78.439516,POINT (12.43097 50.89419),6362.0
80719971,SPAICHING MITTE,48.078364,8.730402,12.5,0.0,POINT (8.73040 48.07836),4600.0
80226027,LOHR BAHNHOF,50.004808,9.58176,40.294702,16.357616,POINT (9.58176 50.00481),5213.0
80145649,PHILIPPSBURG MOLZAU,49.208298,8.4997,79.95625,28.91875,POINT (8.49970 49.20830),4082.0
80160739,MECHTERSTAEDT-SAETTELSTAEDT,50.946258,10.49788,27.362989,13.270463,POINT (10.49788 50.94626),6340.0
80240812,ANGERN-ROGAETZ,52.340355,11.75961,23.169675,14.837545,POINT (11.75961 52.34036),6402.0
80267005,REGENSBURG HAFENBRUECKE,49.016639,12.134048,17.1,13.254545,POINT (12.13405 49.01664),5500.0
80264473,ALTHEIM (NIEDERBAY),48.584006,12.19857,17.12,7.982222,POINT (12.19857 48.58401),5634.0
80314286,LUTHERSTADT EISLEBEN,51.51939,11.552041,13.948571,26.731429,POINT (11.55204 51.51939),6343.0
80081422,WUPPERTAL-UNTERBARMEN,51.26022,7.17187,11.375,1.107143,POINT (7.17187 51.26022),2550.0
80160101,LEISSLING,51.185287,11.90982,32.796238,2.557994,POINT (11.90982 51.18529),6340.0
80210112,MUENSTER(WESTF)HBF,51.956903,7.636311,21.146586,24.554217,POINT (7.63631 51.95690),2931.0
80103853,BOENEN,51.598029,7.757305,37.046205,30.79538,POINT (7.75730 51.59803),2932.0
80226068,LAUFACH,50.011283,9.278357,52.728155,93.61165,POINT (9.27836 50.01128),5200.0
80062315,ZEITHAIN BOGENDREIECK,51.3287,13.319336,35.104101,12.930599,POINT (13.31934 51.32870),6363.0
80100701,WELVER,51.617548,7.956437,16.180328,0.781421,POINT (7.95644 51.61755),2930.0
80202044,KIRCHSEEON,48.07185,11.8878,38.347134,20.121019,POINT (11.88780 48.07185),5555.0
80073775,BAD OLDESLOE,53.805355,10.382585,14.248869,5.312217,POINT (10.38259 53.80535),1120.0
80241372,KOETHEN,51.752573,11.99083,26.076318,107.942565,POINT (11.99083 51.75257),6855.0
80720011,WURMLINGEN MITTE,48.001648,8.777918,12.652174,0.0,POINT (8.77792 48.00165),4600.0
80011759,MASCHEN RBF,53.403473,10.053005,103.494523,301.697966,POINT (10.05301 53.40347),1280.0
80103929,DUISBURG-MEIDERICH OST,51.468788,6.800925,22.371094,14.925781,POINT (6.80093 51.46879),2321.0
80156083,MERSEBURG ELISABETHHOEHE,51.376949,11.969854,37.514754,7.560656,POINT (11.96985 51.37695),6357.0
80290494,STUTTGART HAFEN,48.763299,9.263924,27.085973,319.054299,POINT (9.26392 48.76330),4724.0
80263533,LANDSHUT (BAY) HBF,48.549067,12.137254,37.501931,213.235521,POINT (12.13725 48.54907),5720.0
80240622,STENDAL,52.596323,11.8554,26.75793,61.776294,POINT (11.85540 52.59632),6899.0
80144162,AUGGEN,47.789952,7.58768,47.421875,0.084375,POINT (7.58768 47.78995),4000.0
80034884,FERCH-LIENEWITZ,52.304653,12.965527,17.64751,16.570881,POINT (12.96553 52.30465),6115.0
80204875,FREISING,48.39601,11.744546,16.773256,19.127907,POINT (11.74455 48.39601),5500.0
80092577,BOCHUM-RIEMKE,51.503062,7.20113,57.207547,30.874214,POINT (7.20113 51.50306),2153.0
80290247,KORNWESTHEIM RBF,48.866743,9.175829,34.605544,268.458422,POINT (9.17583 48.86674),4800.0
80648006,UTTENHOFEN,48.562997,11.538784,33.384858,3.217666,POINT (11.53878 48.56300),5501.0
80153288,SINDORF,50.900601,6.670001,23.044068,0.532203,POINT (6.67000 50.90060),2622.0
80112383,WEITERSTADT,49.909693,8.58028,57.208333,17.782051,POINT (8.58028 49.90969),3530.0
80251058,POMMERN (MOSEL),50.169299,7.269851,32.088816,4.730263,POINT (7.26985 50.16930),3010.0
80130187,FALLERSLEBEN,52.423999,10.716705,47.549342,353.592105,POINT (10.71670 52.42400),6399.0
80153106,DORMAGEN BAYERWERK,51.07832,6.838177,19.747104,6.156371,POINT (6.83818 51.07832),2610.0
80140640,NEULUSSHEIM,49.291965,8.530159,75.50625,0.0,POINT (8.53016 49.29196),4080.0
80135970,BIELEFELD HBF,52.029392,8.532351,37.16913,15.963875,POINT (8.53235 52.02939),2990.0
80108324,MONTABAUR (REGIO),50.444904,7.825912,13.795122,39.84878,POINT (7.82591 50.44490),3747.0
80280842,KRATZEBURG,53.428502,12.9434,13.675105,1.337553,POINT (12.94340 53.42850),6325.0
80223362,FEUCHT,49.3821,11.20551,58.119497,23.937107,POINT (11.20551 49.38210),5850.0
80733592,SAALFELD PROPANGASANLAGE,50.661749,11.369391,19.412903,7.432258,POINT (11.36939 50.66175),6383.0
80112490,GERNSHEIM,49.754953,8.489827,62.43125,39.04375,POINT (8.48983 49.75495),4010.0
80106450,FRANKFURT (MAIN) SUED,50.099248,8.686172,38.589255,31.478336,POINT (8.68617 50.09925),3688.0
80081224,DUESSELDORF-ELLER,51.20417,6.85259,67.134426,20.468852,POINT (6.85259 51.20417),2676.0
80011809,ASHAUSEN,53.368759,10.14537,54.753943,0.0,POINT (10.14537 53.36876),1720.0
80251074,COCHEM (MOSEL),50.153095,7.167289,32.440789,42.868421,POINT (7.16729 50.15310),3010.0
80240770,BARLEBER SEE,52.2168,11.6424,22.616601,4.312253,POINT (11.64240 52.21680),6402.0
80112367,GROSS GERAU,49.926539,8.484704,67.2848,24.408,POINT (8.48470 49.92654),3533.0
80060525,DRESDEN-FRIEDRICHSTADT,51.057,13.7087,39.383648,495.808176,POINT (13.70870 51.05700),6244.0
80146993,REMAGEN,50.577598,7.230219,37.714286,24.473016,POINT (7.23022 50.57760),3000.0
80270587,SCHARSTORF,53.97137,12.245822,15.579151,0.0,POINT (12.24582 53.97137),6325.0
80263079,DEINING (OBERPF),49.20503,11.51698,55.31962,0.0,POINT (11.51698 49.20503),5850.0
80253625,ENSDORF(SAAR),49.30412,6.77617,20.261364,8.056818,POINT (6.77617 49.30412),3297.0
80101246,HERNE-ROTTBRUCH,51.538716,7.206201,55.54232,43.912226,POINT (7.20620 51.53872),2650.0
80346452,URMITZ RHEINBRUECKE,50.418339,7.528014,36.957237,2.578947,POINT (7.52801 50.41834),3011.0
80142877,WAGHAEUSEL LUSSHARDT,49.200008,8.51013,13.832402,1.072626,POINT (8.51013 49.20001),4080.0
80103598,PADERBORN HBF,51.713743,8.741845,24.57563,44.413866,POINT (8.74184 51.71374),2961.0
80147116,LUDWIGSHAFEN (RHEIN) ROTES KREUZ,49.48497,8.42231,48.421384,15.267296,POINT (8.42231 49.48497),3410.0
80623793,WEDDEL (ABZW),52.269981,10.630561,64.623824,18.714734,POINT (10.63056 52.26998),1956.0
80253591,KANZEM,49.669556,6.57475,20.410909,1.810909,POINT (6.57475 49.66956),3230.0
80135871,GOHFELD,52.201039,8.759614,51.166134,15.309904,POINT (8.75961 52.20104),2990.0
80160184,OSSMANNSTEDT,51.019335,11.4272,28.133803,2.362676,POINT (11.42720 51.01933),6340.0
80146282,BAAL,51.03345,6.2748,12.926316,2.731579,POINT (6.27480 51.03345),2550.0
80210559,DRENSTEINFURT,51.799151,7.73431,22.245136,0.0,POINT (7.73431 51.79915),2931.0
80085241,BONENBURG,51.557909,9.05109,27.341564,12.901235,POINT (9.05109 51.55791),2970.0
80296145,LAUFFEN(NECKAR),49.074858,9.146803,26.803922,17.733333,POINT (9.14680 49.07486),4900.0
80210237,NATRUP-HAGEN,52.210209,7.91186,33.713287,15.93007,POINT (7.91186 52.21021),2200.0
80225367,WUERZBURG RBF,49.808472,9.885496,37.355096,625.60828,POINT (9.88550 49.80847),5201.0
80698555,TEICHLAND,51.81886,14.424576,15.592727,0.0,POINT (14.42458 51.81886),6220.0
80213116,PAULINENAUE,52.675333,12.713321,16.844,2.692,POINT (12.71332 52.67533),6100.0
80240705,BAMME,52.601969,12.432847,15.355556,6.831111,POINT (12.43285 52.60197),6185.0
80631846,MERZIG (SAAR) STADTMITTE,49.444479,6.635463,20.209059,0.0,POINT (6.63546 49.44448),3230.0
80150359,KREFELD HBF,51.3273,6.57079,25.433333,47.355556,POINT (6.57079 51.32730),2610.0
80235440,LEIPZIG-STOETTERITZ,51.32587,12.413202,23.843511,27.255725,POINT (12.41320 51.32587),6375.0
80255034,DILLINGEN (SAAR) OST,49.3484,6.738701,23.039095,128.975309,POINT (6.73870 49.34840),3230.0
80102632,OBERHAUSEN HBF,51.479046,6.853985,41.461272,73.952601,POINT (6.85398 51.47905),2331.0
80144188,BAD BELLINGEN,47.7317,7.557578,16.033333,0.0,POINT (7.55758 47.73170),4280.0
80105411,BOCHUM PRINZ VON PREUSSEN,51.484622,7.250376,39.729032,8.922581,POINT (7.25038 51.48462),2158.0
80053702,EDERMUENDE-GRIFTE,51.211351,9.448921,27.076642,13.313869,POINT (9.44892 51.21135),3900.0
80240226,GROSS KREUTZ,52.410946,12.777476,26.371711,8.049342,POINT (12.77748 52.41095),6110.0
80160770,EISENACH,50.979572,10.33363,32.756432,132.003431,POINT (10.33363 50.97957),6340.0
80114090,LANG GOENS,50.497759,8.667012,37.978799,16.671378,POINT (8.66701 50.49776),3900.0
80012401,SOTTRUM,53.101317,9.250634,36.503165,21.053797,POINT (9.25063 53.10132),2200.0
80103143,DUISBURG-RUHRORT HAFEN,51.46197,6.780134,30.29368,383.810409,POINT (6.78013 51.46197),2331.0
80130500,GOETTINGEN,51.538289,9.926989,79.304393,64.126569,POINT (9.92699 51.53829),3600.0
80114728,MAINZ-KASTEL,50.0075,8.282966,62.886207,57.093103,POINT (8.28297 50.00750),3603.0
80150995,RHEINKAMP,51.503461,6.624617,10.849057,24.320755,POINT (6.62462 51.50346),2330.0
80144238,EIMELDINGEN,47.62878,7.595671,16.425806,0.0,POINT (7.59567 47.62878),4280.0
80042069,SPREEWITZ,51.500567,14.402998,14.188679,248.893082,POINT (14.40300 51.50057),6218.0
80262949,REGENSBURG HBF,49.011776,12.101223,65.853774,143.998428,POINT (12.10122 49.01178),5500.0
80230326,BUNA WERKE,51.387858,11.955297,31.772071,324.295345,POINT (11.95530 51.38786),6356.0
80210674,RHEINE,52.277308,7.43602,58.02649,139.009934,POINT (7.43602 52.27731),2992.0
80062331,RIESA,51.311318,13.290086,30.364929,59.28752,POINT (13.29009 51.31132),6363.0
80349498,NAHRSTEDT,52.575713,11.705377,16.987552,52.211618,POINT (11.70538 52.57571),6185.0
80111559,OKARBEN,50.252049,8.75454,20.455752,3.132743,POINT (8.75454 50.25205),3900.0
80010793,HAMBURG SUED,53.527197,9.991768,12.696203,0.0,POINT (9.99177 53.52720),0.0
80253849,LUISENTHAL(SAAR),49.24964,6.904242,31.473186,5.283912,POINT (6.90424 49.24964),3232.0
80210427,DREBBER,52.656993,8.453255,32.846667,5.363333,POINT (8.45326 52.65699),2200.0
80294124,NEUFRA (B ROTTWEIL),48.12333,8.67928,12.616162,5.353535,POINT (8.67928 48.12333),4600.0
80916429,HAMBURG-HAUSBRUCH DB-GRENZE,53.471816,9.91231,66.943396,0.025157,POINT (9.91231 53.47182),1720.0
80082933,HAGEN-HALDEN,51.3827,7.521084,36.759542,8.90458,POINT (7.52108 51.38270),2800.0
80110809,FRANKFURT(MAIN)OST,50.113589,8.70936,45.528197,156.682288,POINT (8.70936 50.11359),3660.0
80230060,SCHKOPAU,51.389128,11.991864,18.782979,21.668085,POINT (11.99186 51.38913),6340.0
80101949,WENGERN OST,51.40142,7.350129,37.546713,9.958478,POINT (7.35013 51.40142),2144.0
80165357,BEUREN,51.377125,10.279079,13.482759,1.189655,POINT (10.27908 51.37712),6343.0
80043174,SCHWARZKOLLM,51.443162,14.136248,19.037915,21.587678,POINT (14.13625 51.44316),6207.0
80011007,HAMBURG-LOKSTEDT,53.603704,9.970445,29.455696,26.259494,POINT (9.97044 53.60370),1234.0
80297580,ZIMMERN (B GRUENSFELD),49.59631,9.790352,15.507937,0.0,POINT (9.79035 49.59631),4120.0
80339440,WEIDENTHAL GLATZ II,49.391589,8.03945,18.377358,2.181132,POINT (8.03945 49.39159),3280.0
80204057,EITENSHEIM,48.8168,11.320336,41.330189,0.0,POINT (11.32034 48.81680),5501.0
80254250,BILDSTOCK,49.337421,7.094253,30.811321,0.0,POINT (7.09425 49.33742),3511.0
80095265,GEIST,51.932684,7.621371,15.583851,1.565217,POINT (7.62137 51.93268),2931.0
80020628,NORDENDORF,48.59443,10.837299,41.587859,0.0,POINT (10.83730 48.59443),5300.0
80078832,BERLIN-KAROW,52.614654,13.46991,17.56962,21.329114,POINT (13.46991 52.61465),6500.0
80204222,INGOLSTADT HBF,48.7455,11.43852,72.514107,1114.009404,POINT (11.43852 48.74550),5851.0
80616508,UBSTADT-WEIHER (ABZW),49.164706,8.621991,16.45815,3.876652,POINT (8.62199 49.16471),4083.0
80043604,KLASDORF,52.022476,13.54535,14.2,0.0,POINT (13.54535 52.02248),6135.0
80020677,GERSTHOFEN,48.42425,10.861187,46.178125,13.2,POINT (10.86119 48.42425),5300.0
80290601,PLOCHINGEN,48.713802,9.41262,49.458621,181.827586,POINT (9.41262 48.71380),4701.0
80110072,GEISENHEIM,49.986612,7.96848,65.962457,13.03413,POINT (7.96848 49.98661),3507.0
80012336,BUCHHOLZ(NORDHEIDE),53.326624,9.87737,55.808777,56.39185,POINT (9.87737 53.32662),2200.0
80251033,MUEDEN (MOSEL),50.1854,7.340791,31.983553,4.690789,POINT (7.34079 50.18540),3010.0
80163352,BRETERNITZ,50.61741,11.4071,30.767442,5.94186,POINT (11.40710 50.61741),6383.0
80341032,KOELN BONNTOR MASTLAGER,50.920123,6.943812,38.924092,6.980198,POINT (6.94381 50.92012),2643.0
80231480,BITTERFELD,51.6249,12.31844,40.022082,95.791798,POINT (12.31844 51.62490),6411.0
80253484,FREMERSDORF,49.410054,6.64846,19.940767,0.0,POINT (6.64846 49.41005),3230.0
80031443,BERLIN-KAROW OST,52.607226,13.474104,21.822695,10.592199,POINT (13.47410 52.60723),6085.0
80060830,SVT,51.1582,14.9594,10.785714,3.714286,POINT (14.95940 51.15820),6212.0
80100040,LUENEN SUED,51.608736,7.51959,34.209459,24.266892,POINT (7.51959 51.60874),2900.0
80014191,SCHUBY,54.52164,9.475992,21.303249,0.0,POINT (9.47599 54.52164),1040.0
80082842,WERDOHL,51.26012,7.758828,25.324895,15.670886,POINT (7.75883 51.26012),2800.0
80226738,WINTERHAUSEN,49.709492,10.012446,65.071875,79.846875,POINT (10.01245 49.70949),5321.0
80190116,WEISSENTHURM,50.418183,7.452991,38.43038,5.167722,POINT (7.45299 50.41818),2630.0
80034868,CAPUTH-GELTOW,52.35019,12.98448,16.85098,0.0,POINT (12.98448 52.35019),6115.0
80135657,WUNSTORF,52.420748,9.457657,130.75,313.834375,POINT (9.45766 52.42075),1751.0
80290767,SALACH,48.69041,9.738124,35.404844,0.0,POINT (9.73812 48.69041),4700.0
80140673,WIESENTAL,49.225934,8.50339,75.3,0.0,POINT (8.50339 49.22593),4082.0
80229583,WERNFELD (HP),50.026116,9.726068,97.286604,0.0,POINT (9.72607 50.02612),5230.0
80031617,FANGSCHLEUSE,52.406712,13.825668,16.483146,42.865169,POINT (13.82567 52.40671),6153.0
80231258,NIEMBERG,51.552329,12.100097,27.324324,6.003861,POINT (12.10010 51.55233),6403.0
80143461,KOELN-WORRINGEN,51.054767,6.851918,36.680135,33.185185,POINT (6.85192 51.05477),2620.0
80113845,BRUCHENBRUECKEN,50.302144,8.7895,20.623318,2.426009,POINT (8.78950 50.30214),3900.0
80240044,BRUECKE,52.150651,11.663772,47.186916,14.376947,POINT (11.66377 52.15065),6408.0
80273268,GRABOW (MECKL),53.28347,11.564311,23.413559,5.230508,POINT (11.56431 53.28347),6100.0
80117028,DARMSTADT BERGSCHNEISE,49.897455,8.6329,37.007273,7.145455,POINT (8.63290 49.89746),3601.0
80294165,SPAICHINGEN,48.07271,8.737969,12.832487,10.954315,POINT (8.73797 48.07271),4600.0
80240275,MAGDEBURG-SUDENBURG,52.12473,11.596682,50.18239,319.77673,POINT (11.59668 52.12473),6876.0
80236786,LEIPZIG-RUECKMARSDORF,51.341791,12.283299,25.905724,2.73064,POINT (12.28330 51.34179),6367.0
80221861,FUERTH-UNTERFARRNBACH,49.4844,10.967177,25.5625,0.0,POINT (10.96718 49.48440),5900.0
80803189,MERING - SANKT AFRA,48.275023,10.970443,44.034483,0.0,POINT (10.97044 48.27502),5581.0
80112094,RUESSELSHEIM OPELWERK,49.98898,8.40074,22.763158,55.332237,POINT (8.40074 49.98898),3520.0
80139261,WALDHAUSEN,52.3464,9.76778,154.616822,115.937695,POINT (9.76778 52.34640),1753.0
80154179,LEIPZIG-CONNEWITZ,51.30071,12.385615,23.899614,8.007722,POINT (12.38561 51.30071),6362.0
80100347,DORTMUND-MENGEDE,51.568761,7.373604,22.862069,5.426332,POINT (7.37360 51.56876),2650.0
80253617,SAARLOUIS HBF,49.327783,6.75089,20.834586,28.954887,POINT (6.75089 49.32778),3230.0
80179614,BRETTEN,49.036843,8.69325,34.006369,35.729299,POINT (8.69325 49.03684),4130.0
80112474,STOCKSTADT (RHEIN),49.809688,8.472632,62.297806,6.253918,POINT (8.47263 49.80969),4010.0
80114025,BAD NAUHEIM,50.367909,8.749084,37.206294,25.944056,POINT (8.74908 50.36791),3900.0
80067090,RUPPERTSGRUEN,50.5758,12.1795,16.258242,0.357143,POINT (12.17950 50.57580),6362.0
80253658,VOELKLINGEN,49.250681,6.848745,31.48254,75.285714,POINT (6.84875 49.25068),3290.0
80117127,KLEIN-GERAU EICHMUEHLE,49.921666,8.505878,56.747604,1.549521,POINT (8.50588 49.92167),4010.0
80139246,UTBREMEN,53.096874,8.802206,17.482759,16.367816,POINT (8.80221 53.09687),2200.0
80200840,MUENCHEN-RIEM,48.139405,11.676604,39.741636,50.410781,POINT (11.67660 48.13940),5612.0
80135111,EMPELDE,52.34153,9.6701,22.28934,0.0,POINT (9.67010 52.34153),1760.0
80295238,WINTERBACH (B SCHORNDORF),48.798432,9.481102,11.117188,0.0,POINT (9.48110 48.79843),4710.0
80253963,SAARBRUECKEN GRENZE,49.217003,6.944239,11.46729,0.0,POINT (6.94424 49.21700),3231.0
80231019,DELITZSCH UNT BF AH,51.51365,12.353136,34.63754,7.090615,POINT (12.35314 51.51365),6835.0
80296459,ROIGHEIM,49.362,9.342743,14.983871,0.0,POINT (9.34274 49.36200),4900.0
80251371,SEHLEM (KR WITTLICH),49.906959,6.823537,31.943709,0.34106,POINT (6.82354 49.90696),3010.0
80294538,MAGSTADT,48.736111,8.96595,33.228571,0.0,POINT (8.96595 48.73611),4870.0
80031179,BERLIN-RUHLEBEN,52.530124,13.2236,14.911765,40.455882,POINT (13.22360 52.53012),6185.0
80116863,LOLLAR,50.647552,8.701993,26.426357,33.189922,POINT (8.70199 50.64755),3900.0
80194068,WEIDENTHAL,49.4161,7.999673,32.870662,20.659306,POINT (7.99967 49.41610),3280.0
80111757,KAHL (MAIN),50.0767,9.00638,28.595819,2.087108,POINT (9.00638 50.07670),3660.0
80112516,BIBLIS,49.689169,8.451332,60.194969,64.210692,POINT (8.45133 49.68917),4010.0
80060111,OBERVOGELGESANG (KR PIRNA),50.949769,13.98996,22.712903,1.619355,POINT (13.98996 50.94977),6240.0
80012427,SAGEHORN,53.082786,9.015555,36.582278,29.75,POINT (9.01556 53.08279),2200.0
80035626,HOHEN NEUENDORF WEST,52.672758,13.273293,18.225,4.35,POINT (13.27329 52.67276),6089.0
80643700,DORSFELD,50.88251,6.627547,23.513514,10.814189,POINT (6.62755 50.88251),2622.0
80200410,BURGKIRCHEN,48.167026,12.72815,22.429134,0.0,POINT (12.72815 48.16703),5725.0
80270579,LAAGE(MECKL),53.921195,12.339753,15.771863,8.212928,POINT (12.33975 53.92119),6325.0
80110486,LANGENSELBOLD,50.16309,9.057463,47.650943,17.773585,POINT (9.05746 50.16309),3600.0
80066977,SCHWEINSBURG-CULTEN,50.787898,12.369544,20.995935,3.577236,POINT (12.36954 50.78790),6362.0
80034314,DIEDERSDORF,52.345907,13.369759,30.288462,15.592949,POINT (13.36976 52.34591),6126.0
80042309,RASTATT INDUSTRIE-STAMMGL,48.841371,8.194285,10.0,0.333333,POINT (8.19429 48.84137),4242.0
80140236,MANNH RBF GR E,49.460143,8.509747,34.691548,305.650933,POINT (8.50975 49.46014),4051.0
80210435,BARNSTORF (HAN),52.708209,8.510841,32.846667,12.7,POINT (8.51084 52.70821),2200.0
80228858,GEMUENDEN ZOLLBERG,50.06241,9.680891,69.778816,14.672897,POINT (9.68089 50.06241),5212.0
80040535,KERKWITZ,51.910208,14.629445,14.882114,3.178862,POINT (14.62945 51.91021),6345.0
80113316,HEDDESHEIM/HIRSCHBERG,49.51099,8.63509,56.658228,38.240506,POINT (8.63509 49.51099),3601.0
80190496,BUDENHEIM,50.02677,8.174247,33.143333,2.69,POINT (8.17425 50.02677),3510.0
80102970,WESEL-FELDMARK,51.678,6.616256,32.294737,9.431579,POINT (6.61626 51.67800),2270.0
80231738,ZSCHORTAU,51.48328,12.361489,34.563107,1.411003,POINT (12.36149 51.48328),6411.0
80157107,DUISBURG-MUEHLENBERG,51.382762,6.674154,39.082237,28.615132,POINT (6.67415 51.38276),2505.0
80223289,HENFENFELD,49.501362,11.3879,11.511905,0.0,POINT (11.38790 49.50136),5904.0
80011791,WINSEN (LUHE),53.354535,10.207038,73.78125,32.509375,POINT (10.20704 53.35453),1720.0
80130179,WOLFSBURG HBF,52.42949,10.787747,24.460993,21.386525,POINT (10.78775 52.42949),6399.0
80141242,NECKARGERACH,49.39898,9.074679,11.058824,0.0,POINT (9.07468 49.39898),4111.0
80240317,DREILEBEN-DRACKENSTEDT,52.144783,11.342301,48.322884,21.172414,POINT (11.34230 52.14478),6110.0
80155416,KOELN-MUELHEIM,50.959519,7.01379,22.425781,11.402344,POINT (7.01379 50.95952),2660.0
80184820,KONZ,49.69593,6.573286,20.909722,4.489583,POINT (6.57329 49.69593),3230.0
80031625,HANGELSBERG,52.4019,13.92318,16.494382,4.202247,POINT (13.92318 52.40190),6153.0
80135558,HANNOVER MESSE/LAATZEN,52.316903,9.79389,91.53125,64.18125,POINT (9.79389 52.31690),1732.0
80151951,KOHLSCHEID,50.832392,6.075205,13.178744,5.956522,POINT (6.07521 50.83239),2550.0
80290833,GINGEN (FILS),48.661035,9.787813,35.245675,0.0,POINT (9.78781 48.66103),4700.0
80040139,RADDUSCH,51.81728,14.0341,13.0,0.0,POINT (14.03410 51.81728),6142.0
80240036,MAGDEBURG-ROTHENSEE,52.176543,11.652156,31.085324,205.924915,POINT (11.65216 52.17654),6408.0
80142398,BRUCHHAUSEN (B ETTLINGEN),48.92464,8.373484,41.795597,0.006289,POINT (8.37348 48.92464),4000.0
80034355,BIRKENGRUND,52.329302,13.276603,14.970874,6.92233,POINT (13.27660 52.32930),6132.0
80147934,VIERSEN-HELENABRUNN,51.233842,6.436942,27.080586,16.282051,POINT (6.43694 51.23384),2522.0
80042192,GROSSRAESCHEN,51.591485,14.014883,17.154545,13.718182,POINT (14.01488 51.59148),6193.0
80111807,HANAU-WILHELMSBAD,50.143958,8.883602,45.867508,4.050473,POINT (8.88360 50.14396),3660.0
80100693,BORGELN,51.59967,8.03218,17.631068,0.432039,POINT (8.03218 51.59967),2930.0
80297788,STERNENFELS METTERTAL,49.003449,8.875093,15.61809,3.125628,POINT (8.87509 49.00345),4080.0
80060095,KURORT RATHEN (KR PIRNA),50.95645,14.076516,22.787781,9.691318,POINT (14.07652 50.95645),6240.0
80180802,HATTINGEN (BADEN),47.922402,8.772917,13.025157,8.355346,POINT (8.77292 47.92240),4661.0
80143198,LAHR (SCHWARZW),48.3422,7.835652,52.565625,163.1,POINT (7.83565 48.34220),4000.0
80251405,SCHWEICH DB,49.831141,6.740325,32.444079,6.1875,POINT (6.74033 49.83114),3010.0
80254680,SAARBRUECKEN OST,49.2312,7.01986,13.57971,0.0,POINT (7.01986 49.23120),3254.0
80231654,RAGUHN,51.709428,12.270651,29.639871,0.041801,POINT (12.27065 51.70943),6411.0
80138248,BREMEN-HUCHTING,53.060871,8.724386,27.660377,0.0,POINT (8.72439 53.06087),1500.0
80290643,FAURNDAU,48.71081,9.616744,35.986111,0.0,POINT (9.61674 48.71081),4700.0
80341974,EMSDETTEN STADT,52.1564,7.548544,12.508929,3.0625,POINT (7.54854 52.15640),2931.0
80294017,NECKARHAUSEN (B HORB),48.399128,8.64577,12.698492,7.432161,POINT (8.64577 48.39913),4600.0
80240077,MOESER,52.219205,11.785616,19.454212,2.03663,POINT (11.78562 52.21921),6110.0
80035220,DALLGOW-DOEBERITZ,52.543622,13.058964,12.86875,0.0,POINT (13.05896 52.54362),6185.0
80040089,SCHOENWALDE (SPREEWALD),51.991396,13.776876,20.680851,0.0,POINT (13.77688 51.99140),6142.0
80062372,OSCHATZ,51.312835,13.111373,26.601911,8.06051,POINT (13.11137 51.31283),6363.0
80105007,BOENEN AUTOBAHN,51.6152,7.768966,37.339934,43.029703,POINT (7.76897 51.61520),2932.0
80136309,GARSSEN,52.67075,10.12201,66.454545,33.46395,POINT (10.12201 52.67075),1720.0
80140806,KARLSRUHE-RHEINBRUECKE,49.034753,8.317518,15.018868,10.127358,POINT (8.31752 49.03475),3443.0
80263491,ERGOLDSBACH,48.693829,12.201867,20.873874,0.0,POINT (12.20187 48.69383),5500.0
80208843,WEISSENFELS,51.204685,11.971089,32.768025,47.285266,POINT (11.97109 51.20468),6340.0
80154708,LEIPZIG-PLAGWITZ,51.327695,12.321809,17.589212,126.410788,POINT (12.32181 51.32769),6383.0
80056325,FLIEDEN,50.423015,9.577701,93.76947,137.595016,POINT (9.57770 50.42301),3825.0
80205617,OBERSCHLEISSHEIM,48.258024,11.559062,17.067416,4.089888,POINT (11.55906 48.25802),5500.0
80160507,SEEBERGEN,50.92912,10.7947,27.276596,8.319149,POINT (10.79470 50.92912),6340.0
80034082,BRUECK(MARK),52.1888,12.760224,16.814672,8.934363,POINT (12.76022 52.18880),6118.0
80130567,NORTHEIM(HAN),51.70365,9.986845,75.435737,18.079937,POINT (9.98685 51.70365),2975.0
80201780,KIEFERSFELDEN,47.613033,12.190525,20.29582,59.990354,POINT (12.19052 47.61303),5702.0
80270470,RIEKDAHL,54.08974,12.1794,15.005263,2.189474,POINT (12.17940 54.08974),6443.0
80304444,MACHERN UEST,51.358063,12.640231,26.341935,0.525806,POINT (12.64023 51.35806),6363.0
80297473,EUBIGHEIM,49.502282,9.538519,14.688623,2.808383,POINT (9.53852 49.50228),4120.0
80100016,HEESSEN,51.698186,7.817547,43.787338,17.5,POINT (7.81755 51.69819),2990.0
80112466,RIEDSTADT-GODDELAU,49.833963,8.489943,62.809375,42.675,POINT (8.48994 49.83396),4010.0
80040055,HALBE,52.109301,13.701953,20.921986,14.37234,POINT (13.70195 52.10930),6142.0
80100198,GLADBECK WEST,51.575638,6.97747,49.425606,370.456747,POINT (6.97747 51.57564),2251.0
80136929,GROSSBURGWEDEL,52.506528,9.858019,15.385321,0.0,POINT (9.85802 52.50653),1710.0
80117135,RAUSCHWALD,50.116145,8.949866,37.730337,39.475655,POINT (8.94987 50.11615),3600.0
80069898,ELMSHORN,53.755191,9.658954,26.997576,28.349091,POINT (9.65895 53.75519),1210.0
80140624,OFTERSHEIM,49.373659,8.5801,85.325,28.0875,POINT (8.58010 49.37366),4060.0
80236828,KOETZSCHAU,51.307795,12.12541,26.973333,2.04,POINT (12.12541 51.30779),6367.0
80254268,LANDSWEILER-REDEN,49.353051,7.120122,31.321875,10.484375,POINT (7.12012 49.35305),3511.0
80134155,EMMERKE,52.1635,9.86812,14.894231,0.0,POINT (9.86812 52.16350),1774.0
80135632,DEDENSEN-GUEMMER,52.40712,9.52062,130.7125,0.0,POINT (9.52062 52.40712),1750.0
80040576,PEITZ OST,51.843983,14.449335,16.492908,80.404255,POINT (14.44933 51.84398),6345.0
80137042,WESTERWALSEDE,53.031707,9.346825,24.42437,21.647059,POINT (9.34683 53.03171),1745.0
80051805,HOFGEISMAR,51.499818,9.396002,27.508065,15.483871,POINT (9.39600 51.49982),2550.0
80176560,ROHRBACH,49.965123,9.710453,25.451327,13.964602,POINT (9.71045 49.96512),5216.0
80136069,GUETERSLOH HBF,51.907031,8.385424,41.457516,36.323529,POINT (8.38542 51.90703),2990.0
80293993,HORB,48.4423,8.689189,12.606771,7.302083,POINT (8.68919 48.44230),4860.0
80078667,HERZOGENRATH NIEVELSTEIN,50.896945,6.077877,12.853403,0.0,POINT (6.07788 50.89695),2550.0
80270868,POELCHOW,54.011014,12.121214,12.621359,1.805825,POINT (12.12121 54.01101),6446.0
80031328,HENNIGSDORF NORD (HDO),52.66121,13.209348,18.162455,1.494585,POINT (13.20935 52.66121),6183.0
80221531,VILSHOFEN (NIEDERBAY) BERGER,48.646834,13.159989,21.0,0.424749,POINT (13.15999 48.64683),5830.0
80097345,MECKLENBECK,51.924685,7.572615,23.119342,13.530864,POINT (7.57261 51.92468),2265.0
80190330,ST GOAR,50.150039,7.714684,33.193333,2.623333,POINT (7.71468 50.15004),3507.0
80222034,NUERNBERG RBF,49.417162,11.084965,69.688889,844.336508,POINT (11.08497 49.41716),5951.0
80130237,LEIFERDE(B GIFHORN),52.456452,10.42974,16.323651,0.0,POINT (10.42974 52.45645),6107.0
80231688,GREPPIN,51.6475,12.297715,29.581994,6.672026,POINT (12.29772 51.64750),6411.0
80031898,FINKENHEERD KRAFTWERK,52.26461,14.5772,20.4,0.0,POINT (14.57720 52.26461),6153.0
80204487,REICHERTSHAUSEN(ILM),48.471447,11.51082,33.117834,35.312102,POINT (11.51082 48.47145),5501.0
80200816,GRUB (OBERBAY),48.164587,11.782621,17.149123,0.0,POINT (11.78262 48.16459),5600.0
80113415,DARMSTADT-KRANICHSTEIN,49.90796,8.680359,53.83737,68.567474,POINT (8.68036 49.90796),3557.0
80206011,LANDL (OBERBAY) ABZW,47.85043,12.15982,29.797945,3.438356,POINT (12.15982 47.85043),5704.0
80197798,WERLAU,50.1686,7.68655,33.323333,24.686667,POINT (7.68655 50.16860),3507.0
